timestamp,heading,pitch,roll,depth,battery_pct,battery_volt,arm,mode,m1,m2,m3,m4,m5,m6,leak,ping_ms,tether_m
2026-04-22T14:59:50.723481,162.52279401732264,-0.226093455514291,0.5116279663019402,0.7799999713897705,100.0,0,False,STABILIZE,0.0,0.0,0.0,0.0,0.0,0.0,False,0.0,0.0
2026-04-22T14:59:50.756426,162.522807677701,-0.2274554112430474,0.511807739015329,0.7799999713897705,100.0,0,False,STABILIZE,0.0,0.0,0.0,0.0,0.0,0.0,False,0.0,0.0
2026-04-22T14:59:50.807866,162.5235999796447,-0.2274862271355918,0.5088832441118,0.7799999713897705,100.0,0,False,STABILIZE,0.0,0.0,0.0,0.0,0.0,0.0,False,0.0,0.0
2026-04-22T14:59:50.861347,162.52597688547587,-0.2283304225087495,0.5072550977683982,0.7799999713897705,100.0,0,False,STABILIZE,0.0,0.0,0.0,0.0,0.0,0.0,False,0.0,0.0
2026-04-22T14:59:50.914401,162.52760247049832,-0.22898972252664085,0.5093352105357845,0.7799999713897705,100.0,0,False,STABILIZE,0.0,0.0,0.0,0.0,0.0,0.0,False,0.0,0.0
2026-04-22T14:59:50.957380,162.52739756482325,-0.23034479470537436,0.5080667163408662,0.7799999713897705,100.0,0,False,STABILIZE,0.0,0.0,0.0,0.0,0.0,0.0,False,0.0,0.0
2026-04-22T14:59:51.004021,162.52898216871068,-0.23073435561190309,0.5060465278112762,0.7799999713897705,100.0,0,False,STABILIZE,0.0,0.0,0.0,0.0,0.0,0.0,False,0.0,0.0
2026-04-22T14:59:51.059330,162.5274522063366,-0.23153970428415635,0.5065522819749745,0.7799999713897705,100.0,0,False,STABILIZE,0.0,0.0,0.0,0.0,0.0,0.0,False,0.0,0.0
2026-04-22T14:59:51.118893,162.52702873460805,-0.23167073185842954,0.5042633681902269,0.7799999713897705,100.0,0,False,STABILIZE,0.0,0.0,0.0,0.0,0.0,0.0,False,0.0,0.0
2026-04-22T14:59:51.166642,162.5264276779611,-0.23238824856682466,0.502351075305182,0.7799999713897705,100.0,0,False,STABILIZE,0.0,0.0,0.0,0.0,0.0,0.0,False,0.0,0.0
2026-04-22T14:59:51.238113,162.5274931874716,-0.23359780569972516,0.5014712082018667,0.7799999713897705,100.0,0,False,STABILIZE,0.0,0.0,0.0,0.0,0.0,0.0,False,0.0,0.0
2026-04-22T14:59:51.289873,162.52764345163337,-0.23317790914832803,0.500648757376262,0.7799999713897705,100.0,0,False,STABILIZE,0.0,0.0,0.0,0.0,0.0,0.0,False,0.0,0.0
2026-04-22T14:59:51.311759,162.5294329611959,-0.2336682953863938,0.5006110312532683,0.7799999713897705,100.0,0,False,STABILIZE,0.0,0.0,0.0,0.0,0.0,0.0,False,0.0,0.0
2026-04-22T14:59:51.364139,162.52937831968254,-0.23384190492127377,0.5003153054065479,0.7799999713897705,100.0,0,False,STABILIZE,0.0,0.0,0.0,0.0,0.0,0.0,False,0.0,0.0
2026-04-22T14:59:51.414219,162.5291870743858,-0.23426783124904754,0.49976109958842485,0.7799999713897705,100.0,0,False,STABILIZE,0.0,0.0,0.0,0.0,0.0,0.0,False,0.0,0.0
2026-04-22T14:59:51.475425,162.5304165084364,-0.23319802618986785,0.49835925662213265,0.7799999713897705,100.0,0,False,STABILIZE,0.0,0.0,0.0,0.0,0.0,0.0,False,0.0,0.0
2026-04-22T14:59:51.517854,162.5318235274054,-0.23237677598345316,0.4987704019936557,0.7799999713897705,100.0,0,False,STABILIZE,0.0,0.0,0.0,0.0,0.0,0.0,False,0.0,0.0
2026-04-22T14:59:51.560999,162.53176888589203,-0.23284453721989323,0.49785569025340287,0.7799999713897705,100.0,0,False,STABILIZE,0.0,0.0,0.0,0.0,0.0,0.0,False,0.0,0.0
2026-04-22T14:59:51.605849,162.5332168859961,-0.23272204738208258,0.49817809652656864,0.7799999713897705,100.0,0,False,STABILIZE,0.0,0.0,0.0,0.0,0.0,0.0,False,0.0,0.0
2026-04-22T14:59:51.666693,162.5338042822647,-0.23243595316930896,0.4986622929056991,0.7799999713897705,100.0,0,False,STABILIZE,0.0,0.0,0.0,0.0,0.0,0.0,False,0.0,0.0
2026-04-22T14:59:51.713939,162.5351703200987,-0.23229291940313537,0.49920481269703904,0.7799999713897705,100.0,0,False,STABILIZE,0.0,0.0,0.0,0.0,0.0,0.0,False,0.0,0.0
2026-04-22T14:59:51.761200,162.53705545230963,-0.23302300259238626,0.4988151183883781,0.7799999713897705,100.0,0,False,STABILIZE,0.0,0.0,0.0,0.0,0.0,0.0,False,0.0,0.0
2026-04-22T14:59:51.817122,162.53925477322238,-0.23315933957152207,0.49854191082157756,0.7799999713897705,100.0,0,False,STABILIZE,0.0,0.0,0.0,0.0,0.0,0.0,False,0.0,0.0
2026-04-22T14:59:51.863098,162.53904986754728,-0.23325266770322794,0.49957636431571717,0.7799999713897705,100.0,0,False,STABILIZE,0.0,0.0,0.0,0.0,0.0,0.0,False,0.0,0.0
2026-04-22T14:59:51.912050,162.54003341478776,-0.23422701019658612,0.4996691054780412,0.7799999713897705,100.0,0,False,STABILIZE,0.0,0.0,0.0,0.0,0.0,0.0,False,0.0,0.0
2026-04-22T14:59:51.968756,162.5400470751661,-0.23297857968235475,0.4997155294200562,0.7799999713897705,100.0,0,False,STABILIZE,0.0,0.0,0.0,0.0,0.0,0.0,False,0.0,0.0
2026-04-22T14:59:52.030391,162.54197318851203,-0.2319158716166095,0.5003136512201083,0.7799999713897705,100.0,0,False,STABILIZE,0.0,0.0,0.0,0.0,0.0,0.0,False,0.0,0.0
2026-04-22T14:59:52.081240,162.54256058478066,-0.2317966901516781,0.4997070450444466,0.7799999713897705,100.0,0,False,STABILIZE,0.0,0.0,0.0,0.0,0.0,0.0,False,0.0,0.0
2026-04-22T14:59:52.162329,162.54272450932075,-0.23172956219874155,0.4989892882122134,0.7799999713897705,100.0,0,False,STABILIZE,0.0,0.0,0.0,0.0,0.0,0.0,False,0.0,0.0
2026-04-22T14:59:52.275926,162.54194586775537,-0.23289920541367978,0.499252677382082,0.7799999713897705,100.0,0,False,STABILIZE,0.0,0.0,0.0,0.0,0.0,0.0,False,0.0,0.0
2026-04-22T14:59:52.298543,162.5421234526738,-0.23233718223060823,0.4997438106720883,0.7799999713897705,100.0,0,False,STABILIZE,0.0,0.0,0.0,0.0,0.0,0.0,False,0.0,0.0
2026-04-22T14:59:52.352121,162.54111258467663,-0.23121748477397572,0.49962348194881967,0.7799999713897705,100.0,0,False,STABILIZE,0.0,0.0,0.0,0.0,0.0,0.0,False,0.0,0.0
2026-04-22T14:59:52.381578,162.54338020748108,-0.23128944188409886,0.5001645076362787,0.7799999713897705,100.0,0,False,STABILIZE,0.0,0.0,0.0,0.0,0.0,0.0,False,0.0,0.0
2026-04-22T14:59:52.400013,162.5436260942912,-0.23120478489098772,0.49989172695630135,0.7799999713897705,100.0,0,False,STABILIZE,0.0,0.0,0.0,0.0,0.0,0.0,False,0.0,0.0
2026-04-22T14:59:52.426199,162.54445937736992,-0.23187072833506397,0.5004016432665251,0.7799999713897705,100.0,0,False,STABILIZE,0.0,0.0,0.0,0.0,0.0,0.0,False,0.0,0.0
2026-04-22T14:59:52.466294,162.5457161321772,-0.23059553735310787,0.5010966150145739,0.7799999713897705,100.0,0,False,STABILIZE,0.0,0.0,0.0,0.0,0.0,0.0,False,0.0,0.0
2026-04-22T14:59:52.511859,162.54668601903936,-0.2310880313448628,0.5017262730786844,0.7799999713897705,100.0,0,False,STABILIZE,0.0,0.0,0.0,0.0,0.0,0.0,False,0.0,0.0
2026-04-22T14:59:52.560332,162.54702752849786,-0.23223360881514735,0.5010554204361423,0.7799999713897705,100.0,0,False,STABILIZE,0.0,0.0,0.0,0.0,0.0,0.0,False,0.0,0.0
2026-04-22T14:59:52.607288,162.54798375498166,-0.2327921101819281,0.5008571315068003,0.7799999713897705,100.0,0,False,STABILIZE,0.0,0.0,0.0,0.0,0.0,0.0,False,0.0,0.0
2026-04-22T14:59:52.659954,162.54896730222214,-0.23315699169399487,0.5008313048540012,0.7799999713897705,100.0,0,False,STABILIZE,0.0,0.0,0.0,0.0,0.0,0.0,False,0.0,0.0
2026-04-22T14:59:52.712416,162.5492951513023,-0.23350853299283897,0.5017340637632065,0.7799999713897705,100.0,0,False,STABILIZE,0.0,0.0,0.0,0.0,0.0,0.0,False,0.0,0.0
2026-04-22T14:59:52.763169,162.54948639659906,-0.23396671595618518,0.502233414624558,0.7799999713897705,100.0,0,False,STABILIZE,0.0,0.0,0.0,0.0,0.0,0.0,False,0.0,0.0
2026-04-22T14:59:52.807200,162.55040164194784,-0.2343439771861226,0.5010114510933603,0.7799999713897705,100.0,0,False,STABILIZE,0.0,0.0,0.0,0.0,0.0,0.0,False,0.0,0.0
2026-04-22T14:59:52.858704,162.55060654762295,-0.23506226762688465,0.5003007912545616,0.7799999713897705,100.0,0,False,STABILIZE,0.0,0.0,0.0,0.0,0.0,0.0,False,0.0,0.0
2026-04-22T14:59:52.907880,162.55046994383954,-0.2354148494623601,0.49996771281081775,0.7799999713897705,100.0,0,False,STABILIZE,0.0,0.0,0.0,0.0,0.0,0.0,False,0.0,0.0
2026-04-22T14:59:52.960166,162.55048360421787,-0.2354577782685107,0.5007694062646479,0.7799999713897705,100.0,0,False,STABILIZE,0.0,0.0,0.0,0.0,0.0,0.0,False,0.0,0.0
2026-04-22T14:59:53.010108,162.55101635897313,-0.23521002382853906,0.5015267034888732,0.7799999713897705,100.0,0,False,STABILIZE,0.0,0.0,0.0,0.0,0.0,0.0,False,0.0,0.0
2026-04-22T14:59:53.063288,162.55082511367638,-0.23584475117367423,0.5012977854299719,0.7799999713897705,100.0,0,False,STABILIZE,0.0,0.0,0.0,0.0,0.0,0.0,False,0.0,0.0
2026-04-22T14:59:53.110562,162.5508660948114,-0.23635813593933588,0.5007469947064339,0.7799999713897705,100.0,0,False,STABILIZE,0.0,0.0,0.0,0.0,0.0,0.0,False,0.0,0.0
2026-04-22T14:59:53.160609,162.55143983070167,-0.2364751829701517,0.5018100496177229,0.7799999713897705,100.0,0,False,STABILIZE,0.0,0.0,0.0,0.0,0.0,0.0,False,0.0,0.0
2026-04-22T14:59:53.209168,162.55060654762295,-0.23657886310731838,0.5028959429740492,0.7799999713897705,100.0,0,False,STABILIZE,0.0,0.0,0.0,0.0,0.0,0.0,False,0.0,0.0
2026-04-22T14:59:53.260934,162.54975960416584,-0.23635282653447326,0.5026431192530529,0.7799999713897705,100.0,0,False,STABILIZE,0.0,0.0,0.0,0.0,0.0,0.0,False,0.0,0.0
2026-04-22T14:59:53.310110,162.5495683588691,-0.23631176535817386,0.5013626722270871,0.7799999713897705,100.0,0,False,STABILIZE,0.0,0.0,0.0,0.0,0.0,0.0,False,0.0,0.0
2026-04-22T14:59:53.359745,162.54884435881706,-0.23670842325813707,0.5005415020619517,0.7799999713897705,100.0,0,False,STABILIZE,0.0,0.0,0.0,0.0,0.0,0.0,False,0.0,0.0
2026-04-22T14:59:53.418365,162.550005490976,-0.23723709590815192,0.5001806226138518,0.7799999713897705,100.0,0,False,STABILIZE,0.0,0.0,0.0,0.0,0.0,0.0,False,0.0,0.0
2026-04-22T14:59:53.463045,162.55210918924035,-0.23708893950010082,0.5010202022732344,0.7799999713897705,100.0,0,False,STABILIZE,0.0,0.0,0.0,0.0,0.0,0.0,False,0.0,0.0
2026-04-22T14:59:53.507168,162.55384405728952,-0.2366467647926218,0.5011421851829426,0.7799999713897705,100.0,0,False,STABILIZE,0.0,0.0,0.0,0.0,0.0,0.0,False,0.0,0.0
2026-04-22T14:59:53.560945,162.5563302461474,-0.23872727776640473,0.49929504589927726,0.7799999713897705,100.0,0,False,STABILIZE,0.0,0.0,0.0,0.0,0.0,0.0,False,0.0,0.0
2026-04-22T14:59:53.608946,162.5597043595974,-0.2380002895066215,0.4996964262347213,0.7799999713897705,100.0,0,False,STABILIZE,0.0,0.0,0.0,0.0,0.0,0.0,False,0.0,0.0
2026-04-22T14:59:53.658501,162.56074254835124,-0.23783086879869345,0.49867589992318617,0.7799999713897705,100.0,0,False,STABILIZE,0.0,0.0,0.0,0.0,0.0,0.0,False,0.0,0.0
2026-04-22T14:59:53.708151,162.56335168061418,-0.23768866212573966,0.49845397213601367,0.7799999713897705,100.0,0,False,STABILIZE,0.0,0.0,0.0,0.0,0.0,0.0,False,0.0,0.0
2026-04-22T14:59:53.761970,162.56688971860424,-0.23748903917507547,0.49897007830517276,0.7799999713897705,100.0,0,False,STABILIZE,0.0,0.0,0.0,0.0,0.0,0.0,False,0.0,0.0
2026-04-22T14:59:53.811282,162.56952617162386,-0.23647262164921296,0.49912439789173274,0.7799999713897705,100.0,0,False,STABILIZE,0.0,0.0,0.0,0.0,0.0,0.0,False,0.0,0.0
2026-04-22T14:59:53.873235,162.57049605848601,-0.23585048746536,0.49921537814591144,0.7799999713897705,100.0,0,False,STABILIZE,0.0,0.0,0.0,0.0,0.0,0.0,False,0.0,0.0
2026-04-22T14:59:53.944191,162.5727090397771,-0.2352560475641573,0.4983473037910851,0.7799999713897705,100.0,0,False,STABILIZE,0.0,0.0,0.0,0.0,0.0,0.0,False,0.0,0.0
2026-04-22T14:59:53.976520,162.5742390021512,-0.23555494838162472,0.497738936707278,0.7799999713897705,100.0,0,False,STABILIZE,0.0,0.0,0.0,0.0,0.0,0.0,False,0.0,0.0
2026-04-22T14:59:54.018930,162.57647930419895,-0.23573672212699695,0.49763861830384337,0.7799999713897705,100.0,0,False,STABILIZE,0.0,0.0,0.0,0.0,0.0,0.0,False,0.0,0.0
2026-04-22T14:59:54.069546,162.5769437570625,-0.2356117510095269,0.4979856239301918,0.7799999713897705,100.0,0,False,STABILIZE,0.0,0.0,0.0,0.0,0.0,0.0,False,0.0,0.0
2026-04-22T14:59:54.111831,162.57781802127627,-0.23551548803091202,0.4984890835772158,0.7799999713897705,100.0,0,False,STABILIZE,0.0,0.0,0.0,0.0,0.0,0.0,False,0.0,0.0
2026-04-22T14:59:54.159626,162.57882888927344,-0.23662035117044092,0.49875732858469746,0.7799999713897705,100.0,0,False,STABILIZE,0.0,0.0,0.0,0.0,0.0,0.0,False,0.0,0.0
2026-04-22T14:59:54.209503,162.58007198370237,-0.23647779765194335,0.49880060423639183,0.7799999713897705,100.0,0,False,STABILIZE,0.0,0.0,0.0,0.0,0.0,0.0,False,0.0,0.0
2026-04-22T14:59:54.255495,162.58231228575013,-0.23685388494311718,0.49816561008699217,0.7799999713897705,100.0,0,False,STABILIZE,0.0,0.0,0.0,0.0,0.0,0.0,False,0.0,0.0
2026-04-22T14:59:54.310451,162.5846208896896,-0.2369090067041533,0.4972299275315533,0.7799999713897705,100.0,0,False,STABILIZE,0.0,0.0,0.0,0.0,0.0,0.0,False,0.0,0.0
2026-04-22T14:59:54.362453,162.55157643448507,-0.24532694805192956,0.41984257689441307,0.7799999713897705,100.0,0,False,STABILIZE,0.0,0.0,0.0,0.0,0.0,0.0,False,0.0,0.0
2026-04-22T14:59:54.433790,162.22143241076336,-0.2502994324894046,0.4722528862321687,0.7799999713897705,100.0,0,False,STABILIZE,0.0,0.0,0.0,0.0,0.0,0.0,False,0.0,0.0
2026-04-22T14:59:54.504024,162.74118248584463,-0.22788992866813657,0.7063927314755579,0.7799999713897705,100.0,0,False,STABILIZE,0.0,0.0,0.0,0.0,0.0,0.0,False,0.0,0.0
2026-04-22T14:59:54.528580,160.8694511060727,-0.08605285966190307,3.8557758289346595,0.7799999713897705,100.0,0,False,STABILIZE,0.0,0.0,0.0,0.0,0.0,0.0,False,0.0,0.0
2026-04-22T14:59:54.564717,159.72950619397588,-1.9016495293273141,2.7565405518384396,0.7799999713897705,100.0,0,False,STABILIZE,0.0,0.0,0.0,0.0,0.0,0.0,False,0.0,0.0
2026-04-22T14:59:54.605374,161.4391025432301,-0.5229244054980537,3.664327760933318,0.7799999713897705,100.0,0,False,STABILIZE,0.0,0.0,0.0,0.0,0.0,0.0,False,0.0,0.0
2026-04-22T14:59:54.662306,163.1969336884029,1.9146657354512429,5.2295006139612354,0.7799999713897705,100.0,0,False,STABILIZE,0.0,0.0,0.0,0.0,0.0,0.0,False,0.0,0.0
2026-04-22T14:59:54.709358,164.33148275105538,4.397279202748794,7.317927856001484,0.7799999713897705,100.0,0,False,STABILIZE,0.0,0.0,0.0,0.0,0.0,0.0,False,0.0,0.0
2026-04-22T14:59:54.763175,170.03359787774883,3.3690127927801803,13.676202180785129,0.7799999713897705,100.0,0,False,STABILIZE,0.0,0.0,0.0,0.0,0.0,0.0,False,0.0,0.0
2026-04-22T14:59:54.806640,175.93168479210829,-1.4879783751935514,21.554128709099494,0.7799999713897705,100.0,0,False,STABILIZE,0.0,0.0,0.0,0.0,0.0,0.0,False,0.0,0.0
2026-04-22T14:59:54.856533,177.97045527822206,-5.8611364447233285,24.663227404194714,0.7799999713897705,100.0,0,False,STABILIZE,0.0,0.0,0.0,0.0,0.0,0.0,False,0.0,0.0
2026-04-22T14:59:54.908534,178.4103604419059,-6.413645814611292,25.16928465753742,0.7799999713897705,100.0,0,False,STABILIZE,0.0,0.0,0.0,0.0,0.0,0.0,False,0.0,0.0
2026-04-22T14:59:54.967008,177.85203345839238,-5.234579286495963,25.352053689537794,0.7799999713897705,100.0,0,False,STABILIZE,0.0,0.0,0.0,0.0,0.0,0.0,False,0.0,0.0
2026-04-22T14:59:55.008637,177.22562314923218,-4.723659792237854,25.423782628653974,0.7799999713897705,100.0,0,False,STABILIZE,0.0,0.0,0.0,0.0,0.0,0.0,False,0.0,0.0
2026-04-22T14:59:55.060551,175.62115707168283,-2.6780093846391604,24.25082570475122,0.7799999713897705,100.0,0,False,STABILIZE,0.0,0.0,0.0,0.0,0.0,0.0,False,0.0,0.0
2026-04-22T14:59:55.113544,172.65094002807606,1.9627814299462207,21.111452196159924,0.7799999713897705,100.0,0,False,STABILIZE,0.0,0.0,0.0,0.0,0.0,0.0,False,0.0,0.0
2026-04-22T14:59:55.157787,170.15372724487102,5.838043575139515,18.465240543758345,0.7799999713897705,100.0,0,False,STABILIZE,0.0,0.0,0.0,0.0,0.0,0.0,False,0.0,0.0
2026-04-22T14:59:55.211203,170.15223826363194,6.6027276489520474,18.66598834120148,0.7799999713897705,100.0,0,False,STABILIZE,0.0,0.0,0.0,0.0,0.0,0.0,False,0.0,0.0
2026-04-22T14:59:55.257826,169.43143474014215,7.062843342389956,18.293311021970784,0.7799999713897705,100.0,0,False,STABILIZE,0.0,0.0,0.0,0.0,0.0,0.0,False,0.0,0.0
2026-04-22T14:59:55.310599,167.9250501790742,7.480041542178091,17.097618105868353,0.7799999713897705,100.0,0,False,STABILIZE,0.0,0.0,0.0,0.0,0.0,0.0,False,0.0,0.0
2026-04-22T14:59:55.361660,167.27944703834623,7.681787401013696,16.0332611897688,0.7799999713897705,100.0,0,False,STABILIZE,0.0,0.0,0.0,0.0,0.0,0.0,False,0.0,0.0
2026-04-22T14:59:55.410098,167.87879613801488,7.644486030408964,15.603386158881124,0.7799999713897705,100.0,0,False,STABILIZE,0.0,0.0,0.0,0.0,0.0,0.0,False,0.0,0.0
2026-04-22T14:59:55.460000,169.7334930259968,8.29191539296624,16.213487683850637,0.7799999713897705,100.0,0,False,STABILIZE,0.0,0.0,0.0,0.0,0.0,0.0,False,0.0,0.0
2026-04-22T14:59:55.509301,172.04698738090684,8.9308420237805,18.22819029087659,0.7799999713897705,100.0,0,False,STABILIZE,0.0,0.0,0.0,0.0,0.0,0.0,False,0.0,0.0
2026-04-22T14:59:55.561606,175.19243975785946,7.8593620741502725,21.51194716833279,0.7799999713897705,100.0,0,False,STABILIZE,0.0,0.0,0.0,0.0,0.0,0.0,False,0.0,0.0
2026-04-22T14:59:55.605001,178.50010912759987,6.29880472145399,25.969366186723548,0.7799999713897705,100.0,0,False,STABILIZE,0.0,0.0,0.0,0.0,0.0,0.0,False,0.0,0.0
2026-04-22T14:59:55.655231,181.61439216364622,3.0509821095514615,31.522993000860914,0.7799999713897705,100.0,0,False,STABILIZE,0.0,0.0,0.0,0.0,0.0,0.0,False,0.0,0.0
2026-04-22T14:59:55.707119,184.3678326633751,-2.2286890186278683,38.49763042653568,0.7799999713897705,100.0,0,False,STABILIZE,0.0,0.0,0.0,0.0,0.0,0.0,False,0.0,0.0
2026-04-22T14:59:55.767071,185.35083348872337,-8.00732616968755,46.28757045796194,0.7799999713897705,100.0,0,False,STABILIZE,0.0,0.0,0.0,0.0,0.0,0.0,False,0.0,0.0
2026-04-22T14:59:55.809267,186.23724177882926,-9.99986310530952,52.565798380767625,0.7799999713897705,100.0,0,False,STABILIZE,0.0,0.0,0.0,0.0,0.0,0.0,False,0.0,0.0
2026-04-22T14:59:55.861484,187.17090131761333,-10.04245872629466,56.244896852667914,0.7799999713897705,100.0,0,False,STABILIZE,0.0,0.0,0.0,0.0,0.0,0.0,False,0.0,0.0
2026-04-22T14:59:55.908912,188.17596365398072,-11.609600381350834,60.663172056925326,0.7799999713897705,100.0,0,False,STABILIZE,0.0,0.0,0.0,0.0,0.0,0.0,False,0.0,0.0
2026-04-22T14:59:55.960862,189.8756972100734,-12.437372351205836,62.00539302129204,0.7799999713897705,100.0,0,False,STABILIZE,0.0,0.0,0.0,0.0,0.0,0.0,False,0.0,0.0
2026-04-22T14:59:56.005861,192.38435739032738,-11.392846889361417,61.30635731068709,0.7799999713897705,100.0,0,False,STABILIZE,0.0,0.0,0.0,0.0,0.0,0.0,False,0.0,0.0
2026-04-22T14:59:56.060023,195.0067128995054,-10.797433686202018,60.87451860041303,0.7799999713897705,100.0,0,False,STABILIZE,0.0,0.0,0.0,0.0,0.0,0.0,False,0.0,0.0
2026-04-22T14:59:56.107069,196.83678012534028,-10.827258560986525,60.179157531581545,0.7799999713897705,100.0,0,False,STABILIZE,0.0,0.0,0.0,0.0,0.0,0.0,False,0.0,0.0
2026-04-22T14:59:56.160880,197.77961943836883,-11.539993069745588,59.3265586778672,0.7799999713897705,100.0,0,False,STABILIZE,0.0,0.0,0.0,0.0,0.0,0.0,False,0.0,0.0
2026-04-22T14:59:56.209268,199.03336896241638,-10.100161871950219,57.02904696561499,0.7799999713897705,100.0,0,False,STABILIZE,0.0,0.0,0.0,0.0,0.0,0.0,False,0.0,0.0
2026-04-22T14:59:56.261453,200.17187953478745,-9.491390526321569,54.74055793325636,0.7799999713897705,100.0,0,False,STABILIZE,0.0,0.0,0.0,0.0,0.0,0.0,False,0.0,0.0
2026-04-22T14:59:56.308346,200.8415795829072,-9.223926294839393,53.05124383074252,0.7799999713897705,100.0,0,False,STABILIZE,0.0,0.0,0.0,0.0,0.0,0.0,False,0.0,0.0
2026-04-22T14:59:56.362773,200.27620384417023,-9.118667957087618,51.63959057836804,0.7799999713897705,100.0,0,False,STABILIZE,0.0,0.0,0.0,0.0,0.0,0.0,False,0.0,0.0
2026-04-22T14:59:56.407236,199.35136890979382,-7.283399542199777,48.45056159451075,0.7799999713897705,100.0,0,False,STABILIZE,0.0,0.0,0.0,0.0,0.0,0.0,False,0.0,0.0
2026-04-22T14:59:56.458864,197.9433937142874,-5.8170228141951545,46.31585085622038,0.7799999713897705,100.0,0,False,STABILIZE,0.0,0.0,0.0,0.0,0.0,0.0,False,0.0,0.0
2026-04-22T14:59:56.510267,195.69869302469775,-4.6940278702974,44.867031129477276,0.7799999713897705,100.0,0,False,STABILIZE,0.0,0.0,0.0,0.0,0.0,0.0,False,0.0,0.0
2026-04-22T14:59:56.554495,193.1440520109512,-3.794538914157264,43.52486480662392,0.7799999713897705,100.0,0,False,STABILIZE,0.0,0.0,0.0,0.0,0.0,0.0,False,0.0,0.0
2026-04-22T14:59:56.605088,189.48686820100292,-2.222486993418085,42.24789946958751,0.7799999713897705,100.0,0,False,STABILIZE,0.0,0.0,0.0,0.0,0.0,0.0,False,0.0,0.0
2026-04-22T14:59:56.656727,183.9944535422072,0.6360692638636652,39.718642853891346,0.7799999713897705,100.0,0,False,STABILIZE,0.0,0.0,0.0,0.0,0.0,0.0,False,0.0,0.0
2026-04-22T14:59:56.705732,177.6884504277706,4.3396016703026215,37.104063515083396,0.7799999713897705,100.0,0,False,STABILIZE,0.0,0.0,0.0,0.0,0.0,0.0,False,0.0,0.0
2026-04-22T14:59:56.761107,169.56119467399407,8.502677955279909,34.03021542629461,0.7799999713897705,100.0,0,False,STABILIZE,0.0,0.0,0.0,0.0,0.0,0.0,False,0.0,0.0
2026-04-22T14:59:56.809722,160.61155682339134,12.76513178513359,29.603952315802868,0.7799999713897705,100.0,0,False,STABILIZE,0.0,0.0,0.0,0.0,0.0,0.0,False,0.0,0.0
2026-04-22T14:59:56.861453,151.34505283681338,16.720542144812164,23.51718654826369,0.7799999713897705,100.0,0,False,STABILIZE,0.0,0.0,0.0,0.0,0.0,0.0,False,0.0,0.0
2026-04-22T14:59:56.908728,141.0356882470012,19.304938877677834,15.03936792024169,0.7799999713897705,100.0,0,False,STABILIZE,0.0,0.0,0.0,0.0,0.0,0.0,False,0.0,0.0
2026-04-22T14:59:56.975546,131.65063949718848,20.506922398005848,6.522981348410741,0.7799999713897705,100.0,0,False,STABILIZE,0.0,0.0,0.0,0.0,0.0,0.0,False,0.0,0.0
2026-04-22T14:59:57.017240,126.29485594254972,20.201230451512757,1.838147553066413,0.7799999713897705,100.0,0,False,STABILIZE,0.0,0.0,0.0,0.0,0.0,0.0,False,0.0,0.0
2026-04-22T14:59:57.063295,121.66251236442035,19.67060159263093,-3.1549841193827763,0.7799999713897705,100.0,0,False,STABILIZE,0.0,0.0,0.0,0.0,0.0,0.0,False,0.0,0.0
2026-04-22T14:59:57.110107,117.5539213522259,19.322741765749473,-8.172694441003669,0.7799999713897705,100.0,0,False,STABILIZE,0.0,0.0,0.0,0.0,0.0,0.0,False,0.0,0.0
2026-04-22T14:59:57.158381,112.08483178944577,19.15032730053084,-13.529678401389077,0.7799999713897705,100.0,0,False,STABILIZE,0.0,0.0,0.0,0.0,0.0,0.0,False,0.0,0.0
2026-04-22T14:59:57.210956,109.00940251186414,17.50597291822861,-17.959270375327556,0.7799999713897705,100.0,0,False,STABILIZE,0.0,0.0,0.0,0.0,0.0,0.0,False,0.0,0.0
2026-04-22T14:59:57.255949,106.94588625038739,16.151252707680772,-20.57339209146112,0.7799999713897705,100.0,0,False,STABILIZE,0.0,0.0,0.0,0.0,0.0,0.0,False,0.0,0.0
2026-04-22T14:59:57.311406,105.49723727837353,15.645161303392214,-22.03621882864463,0.7799999713897705,100.0,0,False,STABILIZE,0.0,0.0,0.0,0.0,0.0,0.0,False,0.0,0.0
2026-04-22T14:59:57.358838,104.87194712023721,15.419881173997684,-22.296271451103692,0.7799999713897705,100.0,0,False,STABILIZE,0.0,0.0,0.0,0.0,0.0,0.0,False,0.0,0.0
2026-04-22T14:59:57.412636,107.07496999551147,10.395251657304158,-18.212675516176905,0.7799999713897705,100.0,0,False,STABILIZE,0.0,0.0,0.0,0.0,0.0,0.0,False,0.0,0.0
2026-04-22T14:59:57.459486,108.67559750674727,4.41279568499577,-14.954217659406432,0.7799999713897705,100.0,0,False,STABILIZE,0.0,0.0,0.0,0.0,0.0,0.0,False,0.0,0.0
2026-04-22T14:59:57.507946,115.85956998519917,-3.282922954047224,-7.376567591346983,0.7799999713897705,100.0,0,False,STABILIZE,0.0,0.0,0.0,0.0,0.0,0.0,False,0.0,0.0
2026-04-22T14:59:57.561520,126.85618820929804,-11.99311294192611,-3.090349612380123,0.7799999713897705,100.0,0,False,STABILIZE,0.0,0.0,0.0,0.0,0.0,0.0,False,0.0,0.0
2026-04-22T14:59:57.610073,127.17253525089636,-13.520472160161546,-5.248313089369566,0.7799999713897705,100.0,0,False,STABILIZE,0.0,0.0,0.0,0.0,0.0,0.0,False,0.0,0.0
2026-04-22T14:59:57.661008,126.6957334053161,-11.760294845008826,-10.071564723669022,0.7799999713897705,100.0,0,False,STABILIZE,0.0,0.0,0.0,0.0,0.0,0.0,False,0.0,0.0
2026-04-22T14:59:57.709773,128.84124608777884,-10.927579525742026,-10.544243696311524,0.7799999713897705,100.0,0,False,STABILIZE,0.0,0.0,0.0,0.0,0.0,0.0,False,0.0,0.0
2026-04-22T14:59:57.764548,130.74506569627152,-10.90861038286961,-9.82087287546746,0.7799999713897705,100.0,0,False,STABILIZE,0.0,0.0,0.0,0.0,0.0,0.0,False,0.0,0.0
2026-04-22T14:59:57.807952,131.66757836633013,-10.789070973336985,-10.92982665797896,0.7799999713897705,100.0,0,False,STABILIZE,0.0,0.0,0.0,0.0,0.0,0.0,False,0.0,0.0
2026-04-22T14:59:57.861277,131.24265863768528,-11.185064850846814,-12.463973376702096,0.7799999713897705,100.0,0,False,STABILIZE,0.0,0.0,0.0,0.0,0.0,0.0,False,0.0,0.0
2026-04-22T14:59:57.904196,131.0415368873851,-12.002902310554031,-14.274298794514698,0.7799999713897705,100.0,0,False,STABILIZE,0.0,0.0,0.0,0.0,0.0,0.0,False,0.0,0.0
2026-04-22T14:59:57.963506,130.4504523166122,-13.239042753147633,-15.120080265663729,0.7799999713897705,100.0,0,False,STABILIZE,0.0,0.0,0.0,0.0,0.0,0.0,False,0.0,0.0
2026-04-22T14:59:58.008251,129.35055963380836,-13.822807922451222,-15.932672993862024,0.7799999713897705,100.0,0,False,STABILIZE,0.0,0.0,0.0,0.0,0.0,0.0,False,0.0,0.0
2026-04-22T14:59:58.059798,128.9858958340214,-17.535539099598303,-13.111650333616787,0.7799999713897705,100.0,0,False,STABILIZE,0.0,0.0,0.0,0.0,0.0,0.0,False,0.0,0.0
2026-04-22T14:59:58.108834,127.41608613632067,-17.181142781681146,-7.201719017462887,0.7799999713897705,100.0,0,False,STABILIZE,0.0,0.0,0.0,0.0,0.0,0.0,False,0.0,0.0
2026-04-22T14:59:58.159484,125.82954247515343,-10.945920291210804,2.662367397666185,0.7799999713897705,100.0,0,False,STABILIZE,0.0,0.0,0.0,0.0,0.0,0.0,False,0.0,0.0
2026-04-22T14:59:58.202975,124.82361953495062,-11.441937166473592,6.430264945522403,0.7799999713897705,100.0,0,False,STABILIZE,0.0,0.0,0.0,0.0,0.0,0.0,False,0.0,0.0
2026-04-22T14:59:58.258125,127.18458370459226,-13.702730635521458,2.1689547454678753,0.7799999713897705,100.0,0,False,STABILIZE,0.0,0.0,0.0,0.0,0.0,0.0,False,0.0,0.0
2026-04-22T14:59:58.309539,127.88242413209245,-11.44742693101899,-2.0424837611447457,0.7799999713897705,100.0,0,False,STABILIZE,0.0,0.0,0.0,0.0,0.0,0.0,False,0.0,0.0
2026-04-22T14:59:58.363410,127.35608975465128,-7.993322574341732,-4.200336247560177,0.7799999713897705,100.0,0,False,STABILIZE,0.0,0.0,0.0,0.0,0.0,0.0,False,0.0,0.0
2026-04-22T14:59:58.406055,126.0996627964491,-8.439787280949725,-6.930877684322963,0.7799999713897705,100.0,0,False,STABILIZE,0.0,0.0,0.0,0.0,0.0,0.0,False,0.0,0.0
2026-04-22T14:59:58.467574,126.11007200474418,-8.370194483496464,-7.559614099782385,0.7799999713897705,100.0,0,False,STABILIZE,0.0,0.0,0.0,0.0,0.0,0.0,False,0.0,0.0
2026-04-22T14:59:58.507067,127.43226002427525,-8.169391190766321,-7.898014114663375,0.7799999713897705,100.0,0,False,STABILIZE,0.0,0.0,0.0,0.0,0.0,0.0,False,0.0,0.0
2026-04-22T14:59:58.560905,126.90565243926727,-6.772383571519641,-10.000001416640213,0.7799999713897705,100.0,0,False,STABILIZE,0.0,0.0,0.0,0.0,0.0,0.0,False,0.0,0.0
2026-04-22T14:59:58.604549,124.81904330820672,-6.439938627821256,-13.309245998757962,0.7799999713897705,100.0,0,False,STABILIZE,0.0,0.0,0.0,0.0,0.0,0.0,False,0.0,0.0
2026-04-22T14:59:58.654893,123.70979326623997,-6.313083231913902,-15.725846328057575,0.7799999713897705,100.0,0,False,STABILIZE,0.0,0.0,0.0,0.0,0.0,0.0,False,0.0,0.0
2026-04-22T14:59:58.704751,123.51200464825475,-6.52090539778988,-15.944820485300891,0.7799999713897705,100.0,0,False,STABILIZE,0.0,0.0,0.0,0.0,0.0,0.0,False,0.0,0.0
2026-04-22T14:59:58.758464,122.92167139829054,-4.230970072874507,-13.290945360650559,0.7799999713897705,100.0,0,False,STABILIZE,0.0,0.0,0.0,0.0,0.0,0.0,False,0.0,0.0
2026-04-22T14:59:58.807253,123.70076375615722,-3.0139878840159686,-8.473705146594362,0.7799999713897705,100.0,0,False,STABILIZE,0.0,0.0,0.0,0.0,0.0,0.0,False,0.0,0.0
2026-04-22T14:59:58.857998,124.66499522166625,-1.1358398616839047,-4.172980059273806,0.7799999713897705,100.0,0,False,STABILIZE,0.0,0.0,0.0,0.0,0.0,0.0,False,0.0,0.0
2026-04-22T14:59:58.903906,125.15656393623208,0.8087410351149362,-2.244053956052635,0.7799999713897705,100.0,0,False,STABILIZE,0.0,0.0,0.0,0.0,0.0,0.0,False,0.0,0.0
2026-04-22T14:59:58.957946,125.7869767362459,1.7772150085939062,-2.6491264356298805,0.7799999713897705,100.0,0,False,STABILIZE,0.0,0.0,0.0,0.0,0.0,0.0,False,0.0,0.0
2026-04-22T14:59:59.008579,126.47559640836658,2.8556711426876547,-3.1947494807305907,0.7799999713897705,100.0,0,False,STABILIZE,0.0,0.0,0.0,0.0,0.0,0.0,False,0.0,0.0
2026-04-22T14:59:59.056594,127.39743971988653,2.9030306071754652,-3.645281778432737,0.7799999713897705,100.0,0,False,STABILIZE,0.0,0.0,0.0,0.0,0.0,0.0,False,0.0,0.0
2026-04-22T14:59:59.106879,128.176122266403,3.3103909866812535,-2.9726803940196125,0.7799999713897705,100.0,0,False,STABILIZE,0.0,0.0,0.0,0.0,0.0,0.0,False,0.0,0.0
2026-04-22T14:59:59.154393,128.27697683968742,3.437562705724544,-2.0269378237069735,0.7799999713897705,100.0,0,False,STABILIZE,0.0,0.0,0.0,0.0,0.0,0.0,False,0.0,0.0
2026-04-22T14:59:59.206237,128.28901163300498,4.495644172080732,-1.0912470506967724,0.7799999713897705,100.0,0,False,STABILIZE,0.0,0.0,0.0,0.0,0.0,0.0,False,0.0,0.0
2026-04-22T14:59:59.253678,128.53510334880053,4.186064994176259,-0.8537562506135515,0.7799999713897705,100.0,0,False,STABILIZE,0.0,0.0,0.0,0.0,0.0,0.0,False,0.0,0.0
2026-04-22T14:59:59.307287,128.25059864911282,4.140255769186629,-1.7796332157252082,0.7799999713897705,100.0,0,False,STABILIZE,0.0,0.0,0.0,0.0,0.0,0.0,False,0.0,0.0
2026-04-22T14:59:59.358939,128.46135096614273,4.12612240024658,-2.211128388828354,0.7799999713897705,100.0,0,False,STABILIZE,0.0,0.0,0.0,0.0,0.0,0.0,False,0.0,0.0
2026-04-22T14:59:59.405932,128.54175595305213,4.2743895854282785,-2.4346811206931056,0.7799999713897705,100.0,0,False,STABILIZE,0.0,0.0,0.0,0.0,0.0,0.0,False,0.0,0.0
2026-04-22T14:59:59.458466,128.79100321624423,4.3982747028203235,-2.162448563396615,0.7799999713897705,100.0,0,False,STABILIZE,0.0,0.0,0.0,0.0,0.0,0.0,False,0.0,0.0
2026-04-22T14:59:59.518313,128.71466902208016,4.55135717136688,-2.2710980900713005,0.7799999713897705,100.0,0,False,STABILIZE,0.0,0.0,0.0,0.0,0.0,0.0,False,0.0,0.0
2026-04-22T14:59:59.567308,128.8489778619193,4.733669434466507,-2.2102368356982556,0.7799999713897705,100.0,0,False,STABILIZE,0.0,0.0,0.0,0.0,0.0,0.0,False,0.0,0.0
2026-04-22T14:59:59.605399,129.00036217468346,4.74642395896786,-2.3632281639080754,0.7799999713897705,100.0,0,False,STABILIZE,0.0,0.0,0.0,0.0,0.0,0.0,False,0.0,0.0
2026-04-22T14:59:59.654945,128.80046985843387,4.673716595253074,-2.6122192950063052,0.7799999713897705,100.0,0,False,STABILIZE,0.0,0.0,0.0,0.0,0.0,0.0,False,0.0,0.0
2026-04-22T14:59:59.702634,128.98349160743354,4.683238732729718,-2.676956681733332,0.7799999713897705,100.0,0,False,STABILIZE,0.0,0.0,0.0,0.0,0.0,0.0,False,0.0,0.0
2026-04-22T14:59:59.758680,129.09060263399766,4.8459193246074355,-2.472480027890191,0.7799999713897705,100.0,0,False,STABILIZE,0.0,0.0,0.0,0.0,0.0,0.0,False,0.0,0.0
2026-04-22T14:59:59.807510,129.16872633772428,4.743069482311737,-2.571613393503756,0.7799999713897705,100.0,0,False,STABILIZE,0.0,0.0,0.0,0.0,0.0,0.0,False,0.0,0.0
2026-04-22T14:59:59.861114,129.35432989823022,4.80576464247693,-2.6599241109340244,0.7799999713897705,100.0,0,False,STABILIZE,0.0,0.0,0.0,0.0,0.0,0.0,False,0.0,0.0
2026-04-22T14:59:59.909598,129.59053150010757,4.754462237847318,-2.7140258259062837,0.7799999713897705,100.0,0,False,STABILIZE,0.0,0.0,0.0,0.0,0.0,0.0,False,0.0,0.0
2026-04-22T14:59:59.958964,129.64473588136082,4.862582424861328,-3.013568040825424,0.7799999713897705,100.0,0,False,STABILIZE,0.0,0.0,0.0,0.0,0.0,0.0,False,0.0,0.0
2026-04-22T15:00:00.006528,129.72344698135603,4.806781486889616,-3.1654193677740867,0.7799999713897705,100.0,0,False,STABILIZE,0.0,0.0,0.0,0.0,0.0,0.0,False,0.0,0.0
2026-04-22T15:00:00.059991,129.81846857308926,4.73024750969233,-3.0236415026341352,0.7799999713897705,100.0,0,False,STABILIZE,0.0,0.0,0.0,0.0,0.0,0.0,False,0.0,0.0
2026-04-22T15:00:00.106691,129.72922532139387,4.656088730778917,-3.2002608030605564,0.7799999713897705,100.0,0,False,STABILIZE,0.0,0.0,0.0,0.0,0.0,0.0,False,0.0,0.0
2026-04-22T15:00:00.153225,129.6263763328718,4.592855693216586,-3.301164681773036,0.7799999713897705,100.0,0,False,STABILIZE,0.0,0.0,0.0,0.0,0.0,0.0,False,0.0,0.0
2026-04-22T15:00:00.206923,129.54412719488653,4.620727133898469,-4.758740070701862,0.7799999713897705,100.0,0,False,STABILIZE,0.0,0.0,0.0,0.0,0.0,0.0,False,0.0,0.0
2026-04-22T15:00:00.255372,128.8146766519075,0.7407927124260626,-7.195094587741621,0.7799999713897705,100.0,0,False,STABILIZE,0.0,0.0,0.0,0.0,0.0,0.0,False,0.0,0.0
2026-04-22T15:00:00.306409,128.4496986634187,-6.7328214082996345,-9.56723977705456,0.7799999713897705,100.0,0,False,STABILIZE,0.0,0.0,0.0,0.0,0.0,0.0,False,0.0,0.0
2026-04-22T15:00:00.358076,129.01970527041294,-9.765953031898679,-12.008361339248165,0.7799999713897705,100.0,0,False,STABILIZE,0.0,0.0,0.0,0.0,0.0,0.0,False,0.0,0.0
2026-04-22T15:00:00.414393,130.5189454536091,-8.85075122557293,-10.641217868373719,0.7799999713897705,100.0,0,False,STABILIZE,0.0,0.0,0.0,0.0,0.0,0.0,False,0.0,0.0
2026-04-22T15:00:00.459870,131.72010252104752,-5.592808194311146,-8.895547021244457,0.7799999713897705,100.0,0,False,STABILIZE,0.0,0.0,0.0,0.0,0.0,0.0,False,0.0,0.0
2026-04-22T15:00:00.512617,133.1749191538819,-1.9665924620596764,-6.479762472663839,0.7799999713897705,100.0,0,False,STABILIZE,0.0,0.0,0.0,0.0,0.0,0.0,False,0.0,0.0
2026-04-22T15:00:00.557529,133.8468185229144,1.4988080670094297,-5.242794296520196,0.7799999713897705,100.0,0,False,STABILIZE,0.0,0.0,0.0,0.0,0.0,0.0,False,0.0,0.0
2026-04-22T15:00:00.610045,134.27968859175311,4.619986058373522,-6.391515147926804,0.7799999713897705,100.0,0,False,STABILIZE,0.0,0.0,0.0,0.0,0.0,0.0,False,0.0,0.0
2026-04-22T15:00:00.658836,135.0627014782034,6.821210032575123,-7.819504505248663,0.7799999713897705,100.0,0,False,STABILIZE,0.0,0.0,0.0,0.0,0.0,0.0,False,0.0,0.0
2026-04-22T15:00:00.703364,134.98572524625735,8.031347944998485,-9.704865527509378,0.7799999713897705,100.0,0,False,STABILIZE,0.0,0.0,0.0,0.0,0.0,0.0,False,0.0,0.0
2026-04-22T15:00:00.759270,136.11045249688334,8.855032046635236,-11.131949030992564,0.7799999713897705,100.0,0,False,STABILIZE,0.0,0.0,0.0,0.0,0.0,0.0,False,0.0,0.0
2026-04-22T15:00:00.807187,136.95930840693254,9.072287557528647,-10.462197756454037,0.7799999713897705,100.0,0,False,STABILIZE,0.0,0.0,0.0,0.0,0.0,0.0,False,0.0,0.0
2026-04-22T15:00:00.858499,137.8105139020562,9.695062498503116,-8.422115874019608,0.7799999713897705,100.0,0,False,STABILIZE,0.0,0.0,0.0,0.0,0.0,0.0,False,0.0,0.0
2026-04-22T15:00:00.910711,138.40110669920887,9.1793157680491,-3.881042833108652,0.7799999713897705,100.0,0,False,STABILIZE,0.0,0.0,0.0,0.0,0.0,0.0,False,0.0,0.0
2026-04-22T15:00:00.957387,139.22027860712515,9.626729017178079,-3.3595856376216817,0.7799999713897705,100.0,0,False,STABILIZE,0.0,0.0,0.0,0.0,0.0,0.0,False,0.0,0.0
2026-04-22T15:00:01.022585,140.65280150250862,10.105381844023402,-4.695468186438625,0.7799999713897705,100.0,0,False,STABILIZE,0.0,0.0,0.0,0.0,0.0,0.0,False,0.0,0.0
2026-04-22T15:00:01.061126,141.3857491023427,10.770481759737148,-5.798703393067534,0.7799999713897705,100.0,0,False,STABILIZE,0.0,0.0,0.0,0.0,0.0,0.0,False,0.0,0.0
2026-04-22T15:00:01.106985,141.84344007862524,11.67906169766257,-5.509973367604524,0.7799999713897705,100.0,0,False,STABILIZE,0.0,0.0,0.0,0.0,0.0,0.0,False,0.0,0.0
2026-04-22T15:00:01.154232,141.8931228746479,12.65855607464565,-5.145649369728751,0.7799999713897705,100.0,0,False,STABILIZE,0.0,0.0,0.0,0.0,0.0,0.0,False,0.0,0.0
2026-04-22T15:00:01.210493,142.13947413763194,13.315686867145285,-3.8348033062013123,0.7799999713897705,100.0,0,False,STABILIZE,0.0,0.0,0.0,0.0,0.0,0.0,False,0.0,0.0
2026-04-22T15:00:01.253428,142.27555882665527,14.58860446332482,-1.6699773033650036,0.7799999713897705,100.0,0,False,STABILIZE,0.0,0.0,0.0,0.0,0.0,0.0,False,0.0,0.0
2026-04-22T15:00:01.302915,142.6676799869057,15.660112587485372,-0.6192347685502879,0.7799999713897705,100.0,0,False,STABILIZE,0.0,0.0,0.0,0.0,0.0,0.0,False,0.0,0.0
2026-04-22T15:00:01.369075,143.02987125821315,16.522451290956162,-0.5640022303835682,0.7799999713897705,100.0,0,False,STABILIZE,0.0,0.0,0.0,0.0,0.0,0.0,False,0.0,0.0
2026-04-22T15:00:01.406228,143.6398891133653,17.485540407326518,-0.40192811127938033,0.7799999713897705,100.0,0,False,STABILIZE,0.0,0.0,0.0,0.0,0.0,0.0,False,0.0,0.0
2026-04-22T15:00:01.458861,144.39596373372905,17.937668194530097,-1.1437751541172843,0.7799999713897705,100.0,0,False,STABILIZE,0.0,0.0,0.0,0.0,0.0,0.0,False,0.0,0.0
2026-04-22T15:00:01.507403,144.4248554339182,18.98383290177532,-1.2312646480215643,0.7799999713897705,100.0,0,False,STABILIZE,0.0,0.0,0.0,0.0,0.0,0.0,False,0.0,0.0
2026-04-22T15:00:01.558056,144.80083002697071,18.958539003731467,-1.3116587493169647,0.7799999713897705,100.0,0,False,STABILIZE,0.0,0.0,0.0,0.0,0.0,0.0,False,0.0,0.0
2026-04-22T15:00:01.608648,145.39491988097842,18.325797109210658,-1.2808345324795203,0.7799999713897705,100.0,0,False,STABILIZE,0.0,0.0,0.0,0.0,0.0,0.0,False,0.0,0.0
2026-04-22T15:00:01.661032,145.47315286773176,17.537381543126916,-1.3002348310432954,0.7799999713897705,100.0,0,False,STABILIZE,0.0,0.0,0.0,0.0,0.0,0.0,False,0.0,0.0
2026-04-22T15:00:01.711835,145.72238647054553,16.808369839802065,-1.604256796284318,0.7799999713897705,100.0,0,False,STABILIZE,0.0,0.0,0.0,0.0,0.0,0.0,False,0.0,0.0
2026-04-22T15:00:01.759924,146.21955594023075,17.703312451275913,-1.0382091376877425,0.7799999713897705,100.0,0,False,STABILIZE,0.0,0.0,0.0,0.0,0.0,0.0,False,0.0,0.0
2026-04-22T15:00:01.815483,145.75619590693708,18.33895717619398,0.6841545426724955,0.7799999713897705,100.0,0,False,STABILIZE,0.0,0.0,0.0,0.0,0.0,0.0,False,0.0,0.0
2026-04-22T15:00:01.859915,145.37280372844592,19.515025251263673,2.221173035776504,0.7799999713897705,100.0,0,False,STABILIZE,0.0,0.0,0.0,0.0,0.0,0.0,False,0.0,0.0
2026-04-22T15:00:01.910869,145.28147043886452,20.833786223378688,2.8673928145204544,0.7799999713897705,100.0,0,False,STABILIZE,0.0,0.0,0.0,0.0,0.0,0.0,False,0.0,0.0
2026-04-22T15:00:01.958011,144.78726527127907,21.75060422321679,3.0402350203358584,0.7799999713897705,100.0,0,False,STABILIZE,0.0,0.0,0.0,0.0,0.0,0.0,False,0.0,0.0
2026-04-22T15:00:02.012996,144.91934746944878,22.93203228923765,3.4986805190782873,0.7799999713897705,100.0,0,False,STABILIZE,0.0,0.0,0.0,0.0,0.0,0.0,False,0.0,0.0
2026-04-22T15:00:02.063911,144.90738097802293,24.26740598896143,4.776963015407456,0.7799999713897705,100.0,0,False,STABILIZE,0.0,0.0,0.0,0.0,0.0,0.0,False,0.0,0.0
2026-04-22T15:00:02.109976,145.3902343712078,24.74386632508318,4.971906432716552,0.7799999713897705,100.0,0,False,STABILIZE,0.0,0.0,0.0,0.0,0.0,0.0,False,0.0,0.0
2026-04-22T15:00:02.162870,145.41767807129293,25.198381263401675,5.398118347774987,0.7799999713897705,100.0,0,False,STABILIZE,0.0,0.0,0.0,0.0,0.0,0.0,False,0.0,0.0
2026-04-22T15:00:02.222673,145.59912887678348,26.850288127378647,6.481302680321677,0.7799999713897705,100.0,0,False,STABILIZE,0.0,0.0,0.0,0.0,0.0,0.0,False,0.0,0.0
2026-04-22T15:00:02.262237,145.7310471504131,27.98668134110703,7.961241175810183,0.7799999713897705,100.0,0,False,STABILIZE,0.0,0.0,0.0,0.0,0.0,0.0,False,0.0,0.0
2026-04-22T15:00:02.313281,145.72148488557508,28.327036497637934,9.08923496440674,0.7799999713897705,100.0,0,False,STABILIZE,0.0,0.0,0.0,0.0,0.0,0.0,False,0.0,0.0
2026-04-22T15:00:02.376401,145.58900653643352,27.686123989322496,9.920793420382868,0.7799999713897705,100.0,0,False,STABILIZE,0.0,0.0,0.0,0.0,0.0,0.0,False,0.0,0.0
2026-04-22T15:00:02.409347,145.63741891727057,25.36676591701,10.58674881729016,0.7799999713897705,100.0,0,False,STABILIZE,0.0,0.0,0.0,0.0,0.0,0.0,False,0.0,0.0
2026-04-22T15:00:02.470404,148.56128629716963,22.034128790758604,14.023575356688223,0.7799999713897705,100.0,0,False,STABILIZE,0.0,0.0,0.0,0.0,0.0,0.0,False,0.0,0.0
2026-04-22T15:00:02.508232,158.35561364242784,24.012708234811655,22.29499249818161,0.7799999713897705,100.0,0,False,STABILIZE,0.0,0.0,0.0,0.0,0.0,0.0,False,0.0,0.0
2026-04-22T15:00:02.561718,161.11485980295123,22.666877515468585,24.37604527035236,0.7799999713897705,100.0,0,False,STABILIZE,0.0,0.0,0.0,0.0,0.0,0.0,False,0.0,0.0
2026-04-22T15:00:02.611088,160.86569450202919,17.646937777413918,25.024843232064576,0.7799999713897705,100.0,0,False,STABILIZE,0.0,0.0,0.0,0.0,0.0,0.0,False,0.0,0.0
2026-04-22T15:00:02.653081,159.66117698151908,13.67491725144752,21.47486777887608,0.7799999713897705,100.0,0,False,STABILIZE,0.0,0.0,0.0,0.0,0.0,0.0,False,0.0,0.0
2026-04-22T15:00:02.702279,159.5351736517107,9.888773493553849,16.335638786967145,0.7799999713897705,100.0,0,False,STABILIZE,0.0,0.0,0.0,0.0,0.0,0.0,False,0.0,0.0
2026-04-22T15:00:02.764604,158.04117905379712,4.555452723547949,18.177646891018494,0.7799999713897705,100.0,0,False,STABILIZE,0.0,0.0,0.0,0.0,0.0,0.0,False,0.0,0.0
2026-04-22T15:00:02.815769,157.7171822003284,2.749924232966813,16.449433153634143,0.7799999713897705,100.0,0,False,STABILIZE,0.0,0.0,0.0,0.0,0.0,0.0,False,0.0,0.0
2026-04-22T15:00:02.857671,158.12846887138988,-0.42769067769416924,16.18605593659657,0.7799999713897705,100.0,0,False,STABILIZE,0.0,0.0,0.0,0.0,0.0,0.0,False,0.0,0.0
2026-04-22T15:00:02.908784,157.78514258257002,-4.161382398063125,15.190658317904763,0.7799999713897705,100.0,0,False,STABILIZE,0.0,0.0,0.0,0.0,0.0,0.0,False,0.0,0.0
2026-04-22T15:00:02.959321,157.2379078262686,-7.523646323613098,15.667694097464087,0.7799999713897705,100.0,0,False,STABILIZE,0.0,0.0,0.0,0.0,0.0,0.0,False,0.0,0.0
2026-04-22T15:00:03.005982,157.47069433356097,-11.145494149890345,16.870821674478076,0.7799999713897705,100.0,0,False,STABILIZE,0.0,0.0,0.0,0.0,0.0,0.0,False,0.0,0.0
2026-04-22T15:00:03.065325,161.00158794575574,-8.74354884522864,16.028263198843646,0.7799999713897705,100.0,0,False,STABILIZE,0.0,0.0,0.0,0.0,0.0,0.0,False,0.0,0.0
2026-04-22T15:00:03.108254,163.3722919651538,-11.861903300422874,17.537762326173144,0.7799999713897705,100.0,0,False,STABILIZE,0.0,0.0,0.0,0.0,0.0,0.0,False,0.0,0.0
2026-04-22T15:00:03.164746,164.07103397762447,-17.275860429996296,20.06301474346838,0.7799999713897705,100.0,0,False,STABILIZE,0.0,0.0,0.0,0.0,0.0,0.0,False,0.0,0.0
2026-04-22T15:00:03.210513,171.5902253103514,-20.804605947697098,19.059489199664256,0.7799999713897705,100.0,0,False,STABILIZE,0.0,0.0,0.0,0.0,0.0,0.0,False,0.0,0.0
2026-04-22T15:00:03.253584,176.9284689392016,-23.38949957682489,17.434042488531915,0.7799999713897705,100.0,0,False,STABILIZE,0.0,0.0,0.0,0.0,0.0,0.0,False,0.0,0.0
2026-04-22T15:00:03.310262,183.97713218247205,-20.77421672853242,14.102027763268635,0.7799999713897705,100.0,0,False,STABILIZE,0.0,0.0,0.0,0.0,0.0,0.0,False,0.0,0.0
2026-04-22T15:00:03.357469,186.36767107121983,-17.723972065967907,10.473906408238731,0.7799999713897705,100.0,0,False,STABILIZE,0.0,0.0,0.0,0.0,0.0,0.0,False,0.0,0.0
2026-04-22T15:00:03.410562,187.468943452236,-16.035317076708974,7.345282763627385,0.7799999713897705,100.0,0,False,STABILIZE,0.0,0.0,0.0,0.0,0.0,0.0,False,0.0,0.0
2026-04-22T15:00:03.463902,186.22207875887185,-12.982032979963808,3.6497559792259184,0.7799999713897705,100.0,0,False,STABILIZE,0.0,0.0,0.0,0.0,0.0,0.0,False,0.0,0.0
2026-04-22T15:00:03.508130,185.76225676356825,-8.345569943991276,0.9595493708329963,0.7799999713897705,100.0,0,False,STABILIZE,0.0,0.0,0.0,0.0,0.0,0.0,False,0.0,0.0
2026-04-22T15:00:03.565981,186.5960179555517,-7.328632469978187,2.795875824711955,0.7799999713897705,100.0,0,False,STABILIZE,0.0,0.0,0.0,0.0,0.0,0.0,False,0.0,0.0
2026-04-22T15:00:03.607807,187.59937274462658,-7.545449141217425,4.166053393681768,0.7799999713897705,100.0,0,False,STABILIZE,0.0,0.0,0.0,0.0,0.0,0.0,False,0.0,0.0
2026-04-22T15:00:03.659651,187.48529492510903,-8.994895537816879,6.138080978773481,0.7799999713897705,100.0,0,False,STABILIZE,0.0,0.0,0.0,0.0,0.0,0.0,False,0.0,0.0
2026-04-22T15:00:03.703535,187.00763247569336,-9.201233845095672,6.373273420200993,0.7799999713897705,100.0,0,False,STABILIZE,0.0,0.0,0.0,0.0,0.0,0.0,False,0.0,0.0
2026-04-22T15:00:03.759819,186.4347162081127,-12.143821065962442,5.934966947669758,0.7799999713897705,100.0,0,False,STABILIZE,0.0,0.0,0.0,0.0,0.0,0.0,False,0.0,0.0
2026-04-22T15:00:03.805223,186.81446106558704,-12.172288440649409,6.250994251037548,0.7799999713897705,100.0,0,False,STABILIZE,0.0,0.0,0.0,0.0,0.0,0.0,False,0.0,0.0
2026-04-22T15:00:03.856122,185.86775586548825,-5.385634896406319,3.3318213455324033,0.7799999713897705,100.0,0,False,STABILIZE,0.0,0.0,0.0,0.0,0.0,0.0,False,0.0,0.0
2026-04-22T15:00:03.906380,184.4453689708331,2.521947459510597,2.4756167922665195,0.7799999713897705,100.0,0,False,STABILIZE,0.0,0.0,0.0,0.0,0.0,0.0,False,0.0,0.0
2026-04-22T15:00:03.959981,186.32406714355847,9.265789378036047,3.9659672708144753,0.7799999713897705,100.0,0,False,STABILIZE,0.0,0.0,0.0,0.0,0.0,0.0,False,0.0,0.0
2026-04-22T15:00:04.007054,190.34542297967351,16.668147763688996,5.69723623719194,0.7799999713897705,100.0,0,False,STABILIZE,0.0,0.0,0.0,0.0,0.0,0.0,False,0.0,0.0
2026-04-22T15:00:04.057264,191.42255747216288,21.59888864627788,1.401420348337332,0.7799999713897705,100.0,0,False,STABILIZE,0.0,0.0,0.0,0.0,0.0,0.0,False,0.0,0.0
2026-04-22T15:00:04.107305,194.19939819998822,20.10665965226476,1.460667116745315,0.7799999713897705,100.0,0,False,STABILIZE,0.0,0.0,0.0,0.0,0.0,0.0,False,0.0,0.0
2026-04-22T15:00:04.152683,196.8316984645978,18.472560799001304,3.5947341097064114,0.7799999713897705,100.0,0,False,STABILIZE,0.0,0.0,0.0,0.0,0.0,0.0,False,0.0,0.0
2026-04-22T15:00:04.201975,198.3798018211162,12.076575292262728,4.970414463269727,0.7799999713897705,100.0,0,False,STABILIZE,0.0,0.0,0.0,0.0,0.0,0.0,False,0.0,0.0
2026-04-22T15:00:04.253412,198.0859124415089,8.13101662668825,6.5411603237735525,0.7799999713897705,100.0,0,False,STABILIZE,0.0,0.0,0.0,0.0,0.0,0.0,False,0.0,0.0
2026-04-22T15:00:04.308060,194.94898414064045,6.796687092133839,6.419858298548242,0.7799999713897705,100.0,0,False,STABILIZE,0.0,0.0,0.0,0.0,0.0,0.0,False,0.0,0.0
2026-04-22T15:00:04.359379,190.77360753874163,7.730438838471697,2.465196271470607,0.7799999713897705,100.0,0,False,STABILIZE,0.0,0.0,0.0,0.0,0.0,0.0,False,0.0,0.0
2026-04-22T15:00:04.412389,186.53156829054345,7.507685025296425,-3.5114036673981404,0.7799999713897705,100.0,0,False,STABILIZE,0.0,0.0,0.0,0.0,0.0,0.0,False,0.0,0.0
2026-04-22T15:00:04.456900,185.71433615635144,5.719576505306582,-3.872815443366549,0.7799999713897705,100.0,0,False,STABILIZE,0.0,0.0,0.0,0.0,0.0,0.0,False,0.0,0.0
2026-04-22T15:00:04.509217,185.23521204645337,3.738001169528837,-3.2575387694402833,0.7799999713897705,100.0,0,False,STABILIZE,0.0,0.0,0.0,0.0,0.0,0.0,False,0.0,0.0
2026-04-22T15:00:04.561756,185.188152043072,1.077655934743799,-2.2331339776736656,0.7799999713897705,100.0,0,False,STABILIZE,0.0,0.0,0.0,0.0,0.0,0.0,False,0.0,0.0
2026-04-22T15:00:04.615954,183.94108244403273,-1.231099229377603,-1.9419651477901376,0.7799999713897705,100.0,0,False,STABILIZE,0.0,0.0,0.0,0.0,0.0,0.0,False,0.0,0.0
2026-04-22T15:00:04.659865,183.71826801292858,-1.9073087679414928,-1.8762698270320162,0.7799999713897705,100.0,0,False,STABILIZE,0.0,0.0,0.0,0.0,0.0,0.0,False,0.0,0.0
2026-04-22T15:00:04.710698,183.95143701081446,-0.8682270735872814,-1.5860818763463256,0.7799999713897705,100.0,0,False,STABILIZE,0.0,0.0,0.0,0.0,0.0,0.0,False,0.0,0.0
2026-04-22T15:00:04.763035,183.95567172809987,-0.46209884953559277,-0.9978228694556917,0.7799999713897705,100.0,0,False,STABILIZE,0.0,0.0,0.0,0.0,0.0,0.0,False,0.0,0.0
2026-04-22T15:00:04.808456,184.77422891899087,-0.06093635977348857,-0.48163473802656304,0.7799999713897705,100.0,0,False,STABILIZE,0.0,0.0,0.0,0.0,0.0,0.0,False,0.0,0.0
2026-04-22T15:00:04.863813,185.67887381418072,-0.05078503114019678,-0.46933538160036836,0.7799999713897705,100.0,0,False,STABILIZE,0.0,0.0,0.0,0.0,0.0,0.0,False,0.0,0.0
2026-04-22T15:00:04.917970,186.56178504743158,-0.023207915582645514,-0.42711774221668153,0.7799999713897705,100.0,0,False,STABILIZE,0.0,0.0,0.0,0.0,0.0,0.0,False,0.0,0.0
2026-04-22T15:00:04.959195,186.80524031020752,0.06988252020403012,-0.4679234534328798,0.7799999713897705,100.0,0,False,STABILIZE,0.0,0.0,0.0,0.0,0.0,0.0,False,0.0,0.0
2026-04-22T15:00:05.006391,186.99014719141812,-0.01620212918598261,-0.2986274764984612,0.7799999713897705,100.0,0,False,STABILIZE,0.0,0.0,0.0,0.0,0.0,0.0,False,0.0,0.0
2026-04-22T15:00:05.059369,187.0529029695122,-0.12873605914684824,-0.16606089518663908,0.7799999713897705,100.0,0,False,STABILIZE,0.0,0.0,0.0,0.0,0.0,0.0,False,0.0,0.0
2026-04-22T15:00:05.111861,187.2821514388145,-0.18612169438749543,0.36236813585434247,0.7799999713897705,100.0,0,False,STABILIZE,0.0,0.0,0.0,0.0,0.0,0.0,False,0.0,0.0
2026-04-22T15:00:05.158912,187.40176171155977,0.13985073793780273,0.5169745636790322,0.7799999713897705,100.0,0,False,STABILIZE,0.0,0.0,0.0,0.0,0.0,0.0,False,0.0,0.0
2026-04-22T15:00:05.207637,186.88224386291026,0.820162392067667,0.7412905691835331,0.7799999713897705,100.0,0,False,STABILIZE,0.0,0.0,0.0,0.0,0.0,0.0,False,0.0,0.0
2026-04-22T15:00:05.258304,184.69708876250476,1.0280033409638625,-0.07971865961950961,0.7799999713897705,100.0,0,False,STABILIZE,0.0,0.0,0.0,0.0,0.0,0.0,False,0.0,0.0
2026-04-22T15:00:05.305998,182.71369745018143,1.843111819932543,-1.8271110345847303,0.7799999713897705,100.0,0,False,STABILIZE,0.0,0.0,0.0,0.0,0.0,0.0,False,0.0,0.0
2026-04-22T15:00:05.357727,182.31369425162882,2.881270478253451,-3.07600130592463,0.7799999713897705,100.0,0,False,STABILIZE,0.0,0.0,0.0,0.0,0.0,0.0,False,0.0,0.0
2026-04-22T15:00:05.405225,181.83108674525405,4.09779248311666,-3.7401189550583642,0.7799999713897705,100.0,0,False,STABILIZE,0.0,0.0,0.0,0.0,0.0,0.0,False,0.0,0.0
2026-04-22T15:00:05.456365,181.876562144748,4.756609478567641,-3.4239375455474264,0.7799999713897705,100.0,0,False,STABILIZE,0.0,0.0,0.0,0.0,0.0,0.0,False,0.0,0.0
2026-04-22T15:00:05.506823,181.62411835302433,4.346127062280923,-2.393464771033487,0.7799999713897705,100.0,0,False,STABILIZE,0.0,0.0,0.0,0.0,0.0,0.0,False,0.0,0.0
2026-04-22T15:00:05.557149,181.42153494224175,4.00375102352934,-1.2653727984676097,0.7799999713897705,100.0,0,False,STABILIZE,0.0,0.0,0.0,0.0,0.0,0.0,False,0.0,0.0
2026-04-22T15:00:05.605678,181.33081636968564,3.702594322645137,-0.3026211094505088,0.7799999713897705,100.0,0,False,STABILIZE,0.0,0.0,0.0,0.0,0.0,0.0,False,0.0,0.0
2026-04-22T15:00:05.661019,180.50493721600438,4.151708288877448,0.09284017338661812,0.7799999713897705,100.0,0,False,STABILIZE,0.0,0.0,0.0,0.0,0.0,0.0,False,0.0,0.0
2026-04-22T15:00:05.711430,179.93219489087645,5.32117583988797,0.17861758432589928,0.7799999713897705,100.0,0,False,STABILIZE,0.0,0.0,0.0,0.0,0.0,0.0,False,0.0,0.0
2026-04-22T15:00:05.758522,179.7157052149437,5.650478896568148,0.6233669262764399,0.7799999713897705,100.0,0,False,STABILIZE,0.0,0.0,0.0,0.0,0.0,0.0,False,0.0,0.0
2026-04-22T15:00:05.809827,179.2802123534637,6.225162475596559,1.1843360190599934,0.7799999713897705,100.0,0,False,STABILIZE,0.0,0.0,0.0,0.0,0.0,0.0,False,0.0,0.0
2026-04-22T15:00:05.857463,178.4203598388508,7.513131247385863,0.6247355254313811,0.7799999713897705,100.0,0,False,STABILIZE,0.0,0.0,0.0,0.0,0.0,0.0,False,0.0,0.0
2026-04-22T15:00:05.905503,177.9572183716106,7.512804252079349,0.692063101318577,0.7799999713897705,100.0,0,False,STABILIZE,0.0,0.0,0.0,0.0,0.0,0.0,False,0.0,0.0
2026-04-22T15:00:05.961358,177.66741344512693,7.0610845686786785,1.0686425396386152,0.7799999713897705,100.0,0,False,STABILIZE,0.0,0.0,0.0,0.0,0.0,0.0,False,0.0,0.0
2026-04-22T15:00:06.017738,177.47814890322587,6.782386383559124,1.1789255487419914,0.7799999713897705,100.0,0,False,STABILIZE,0.0,0.0,0.0,0.0,0.0,0.0,False,0.0,0.0
2026-04-22T15:00:06.059628,177.769579414732,6.0062882098698545,1.8760973647554733,0.7799999713897705,100.0,0,False,STABILIZE,0.0,0.0,0.0,0.0,0.0,0.0,False,0.0,0.0
2026-04-22T15:00:06.105782,178.08915030561855,5.012885860189336,2.690355591894193,0.7799999713897705,100.0,0,False,STABILIZE,0.0,0.0,0.0,0.0,0.0,0.0,False,0.0,0.0
2026-04-22T15:00:06.163043,178.15492502732576,4.804951849965699,3.013593654034812,0.7799999713897705,100.0,0,False,STABILIZE,0.0,0.0,0.0,0.0,0.0,0.0,False,0.0,0.0
2026-04-22T15:00:06.217684,178.4923363723244,4.761209610973645,3.3277584501933033,0.7799999713897705,100.0,0,False,STABILIZE,0.0,0.0,0.0,0.0,0.0,0.0,False,0.0,0.0
2026-04-22T15:00:06.263800,178.85493745498204,4.851619117469811,3.6789050921694173,0.7799999713897705,100.0,0,False,STABILIZE,0.0,0.0,0.0,0.0,0.0,0.0,False,0.0,0.0
2026-04-22T15:00:06.309652,179.08837966043473,5.213388624595999,4.416384095630966,0.7799999713897705,100.0,0,False,STABILIZE,0.0,0.0,0.0,0.0,0.0,0.0,False,0.0,0.0
2026-04-22T15:00:06.366758,179.06903656470524,5.613425974094476,4.40022984447024,0.7799999713897705,100.0,0,False,STABILIZE,0.0,0.0,0.0,0.0,0.0,0.0,False,0.0,0.0
2026-04-22T15:00:06.409342,179.15688645780995,6.1262809732086385,4.404097012200936,0.7799999713897705,100.0,0,False,STABILIZE,0.0,0.0,0.0,0.0,0.0,0.0,False,0.0,0.0
2026-04-22T15:00:06.461452,179.52945961665583,5.979328599442168,5.031420432275811,0.7799999713897705,100.0,0,False,STABILIZE,0.0,0.0,0.0,0.0,0.0,0.0,False,0.0,0.0
2026-04-22T15:00:06.512241,179.65696558808162,5.542463723712628,5.4288072414895,0.7799999713897705,100.0,0,False,STABILIZE,0.0,0.0,0.0,0.0,0.0,0.0,False,0.0,0.0
2026-04-22T15:00:06.564683,180.61020409149262,5.608772053948758,5.703697596146772,0.7799999713897705,100.0,0,False,STABILIZE,0.0,0.0,0.0,0.0,0.0,0.0,False,0.0,0.0
2026-04-22T15:00:06.617635,182.54530596638395,5.620782087830579,5.530512173325575,0.7799999713897705,100.0,0,False,STABILIZE,0.0,0.0,0.0,0.0,0.0,0.0,False,0.0,0.0
2026-04-22T15:00:06.657359,186.58883259654485,3.373553161030946,6.702609347166552,0.7799999713897705,100.0,0,False,STABILIZE,0.0,0.0,0.0,0.0,0.0,0.0,False,0.0,0.0
2026-04-22T15:00:06.705202,189.59612390696645,1.3903795609874179,6.51393220153412,0.7799999713897705,100.0,0,True,STABILIZE,0.0,0.0,0.0,0.0,0.0,0.0,False,0.0,0.0
2026-04-22T15:00:06.758204,192.08056423642356,0.39855295729276263,6.324048673739534,0.7799999713897705,100.0,0,False,STABILIZE,0.0,0.0,0.0,0.0,0.0,0.0,False,0.0,0.0
2026-04-22T15:00:06.808914,194.40377112033335,-0.4928667706732375,7.256799370477163,0.7799999713897705,100.0,0,False,STABILIZE,0.0,0.0,0.0,0.0,0.0,0.0,False,0.0,0.0
2026-04-22T15:00:06.871618,195.8269093357972,-0.09440519384105019,7.406912414282056,0.7799999713897705,100.0,0,False,STABILIZE,0.0,0.0,0.0,0.0,0.0,0.0,False,0.0,0.0
2026-04-22T15:00:06.906347,198.47241918626156,-0.5171639413459413,8.07387611786557,0.7799999713897705,100.0,0,False,STABILIZE,0.0,0.0,0.0,0.0,0.0,0.0,False,0.0,0.0
2026-04-22T15:00:06.965049,200.39183894681855,-0.46421700859109005,8.304724558980954,0.7799999713897705,100.0,0,False,STABILIZE,0.0,0.0,0.0,0.0,0.0,0.0,False,0.0,0.0
2026-04-22T15:00:07.017096,201.33780648648698,-1.092993017803357,7.862130862085066,0.7799999713897705,100.0,0,False,STABILIZE,0.0,0.0,0.0,0.0,0.0,0.0,False,0.0,0.0
2026-04-22T15:00:07.057599,201.99472042048046,-1.7958885323413096,8.191923984838192,0.7799999713897705,100.0,0,False,STABILIZE,0.0,0.0,0.0,0.0,0.0,0.0,False,0.0,0.0
2026-04-22T15:00:07.110894,202.97531701924086,-3.090959847093781,8.234961006798443,0.7799999713897705,100.0,0,False,STABILIZE,0.0,0.0,0.0,0.0,0.0,0.0,False,0.0,0.0
2026-04-22T15:00:07.163370,203.3847458788481,-4.844126399950307,8.698934903343764,0.7799999713897705,100.0,0,False,STABILIZE,0.0,0.0,0.0,0.0,0.0,0.0,False,0.0,0.0
2026-04-22T15:00:07.210132,204.12322593190987,-7.203971272341699,8.335608113086813,0.7799999713897705,100.0,0,False,STABILIZE,0.0,0.0,0.0,0.0,0.0,0.0,False,0.0,0.0
2026-04-22T15:00:07.266512,204.3903956114841,-7.737538820113925,8.094219836308453,0.7799999713897705,100.0,0,False,STABILIZE,0.0,0.0,0.0,0.0,0.0,0.0,False,0.0,0.0
2026-04-22T15:00:07.308876,204.9298439521317,-8.63145861075956,8.570096191256166,0.7799999713897705,100.0,0,False,STABILIZE,0.0,0.0,0.0,0.0,0.0,0.0,False,0.0,0.0
2026-04-22T15:00:07.361842,204.85072304078628,-9.034309998196083,8.819443345964883,0.7799999713897705,100.0,0,False,STABILIZE,0.0,0.0,0.0,0.0,0.0,0.0,False,0.0,0.0
2026-04-22T15:00:07.412508,204.64845381870552,-8.74455117548934,9.20232752913652,0.7799999713897705,100.0,0,False,STABILIZE,0.0,0.0,0.0,0.0,0.0,0.0,False,0.0,0.0
2026-04-22T15:00:07.462341,204.7850985832408,-8.845514178026821,9.982966924850201,0.7799999713897705,100.0,0,False,STABILIZE,0.0,0.0,0.0,0.0,0.0,0.0,False,0.0,0.0
2026-04-22T15:00:07.510156,204.78392379070357,-8.348391665892137,10.713705812261416,0.7799999713897705,100.0,0,False,STABILIZE,0.0,0.0,0.0,0.0,0.0,0.0,False,0.0,0.0
2026-04-22T15:00:07.557206,204.56277592575688,-7.371385185314235,11.346883985115463,0.7799999713897705,100.0,0,False,STABILIZE,0.0,0.0,0.0,0.0,0.0,0.0,False,0.0,0.0
2026-04-22T15:00:07.608398,204.55699758571905,-6.721946039593681,12.024823802695188,0.7799999713897705,100.0,0,False,STABILIZE,0.0,0.0,0.0,0.0,0.0,0.0,False,0.0,0.0
2026-04-22T15:00:07.659818,204.22780978848112,-5.925207888006279,12.237342577399195,0.7799999713897705,100.0,0,False,STABILIZE,0.0,0.0,0.0,0.0,0.0,0.0,False,0.0,0.0
2026-04-22T15:00:07.705060,203.38574308646693,-5.123671528526943,12.224375463259927,0.7799999713897705,100.0,0,True,STABILIZE,0.0,0.0,0.0,0.0,0.0,0.0,False,0.0,0.0
2026-04-22T15:00:07.756961,202.46828475639413,-3.9732747194527427,11.552067990424524,0.7799999713897705,100.0,0,False,STABILIZE,0.0,0.0,0.0,0.0,0.0,0.0,False,0.0,0.0
2026-04-22T15:00:07.811049,201.46861826947105,-3.4197395405288074,10.930461865571772,0.7799999713897705,100.0,0,False,STABILIZE,0.0,0.0,0.0,0.0,0.0,0.0,False,0.0,0.0
2026-04-22T15:00:07.860097,200.4048572873766,-2.6277575484812608,10.364946107956811,0.7799999713897705,100.0,0,False,STABILIZE,0.0,0.0,0.0,0.0,0.0,0.0,False,0.0,0.0
2026-04-22T15:00:07.906718,199.4135099708626,-0.48465485557847227,10.116220500462566,0.7799999713897705,100.0,0,False,STABILIZE,0.0,0.0,0.0,0.0,0.0,0.0,False,0.0,0.0
2026-04-22T15:00:07.959695,198.45584914733513,1.544449845642688,9.139558944437749,0.7799999713897705,100.0,0,False,STABILIZE,0.0,0.0,0.0,0.0,0.0,0.0,False,0.0,0.0
2026-04-22T15:00:08.018888,198.50251299974465,2.335005181927348,9.467484010452877,0.7799999713897705,100.0,0,False,STABILIZE,0.0,0.0,0.0,0.0,0.0,0.0,False,0.0,0.0
2026-04-22T15:00:08.066229,198.65798176563248,2.4213722836519245,9.975549339411568,0.7799999713897705,100.0,0,False,STABILIZE,0.0,0.0,0.0,0.0,0.0,0.0,False,0.0,0.0
2026-04-22T15:00:08.114241,199.71903799281563,3.8264666334324886,10.14004420028757,0.7799999713897705,100.0,0,False,STABILIZE,0.0,0.0,0.0,0.0,0.0,0.0,False,0.0,0.0
2026-04-22T15:00:08.160672,200.83159384634067,4.257933952170426,9.78917396752943,0.7799999713897705,100.0,0,False,STABILIZE,0.0,0.0,0.0,0.0,0.0,0.0,False,0.0,0.0
2026-04-22T15:00:08.219597,201.83474372974044,4.9055759043656195,9.030451795088672,0.7799999713897705,100.0,0,False,STABILIZE,0.0,0.0,0.0,0.0,0.0,0.0,False,0.0,0.0
2026-04-22T15:00:08.261200,201.65240499965776,4.614171859842549,7.364303986692224,0.7799999713897705,100.0,0,False,STABILIZE,0.0,0.0,0.0,0.0,0.0,0.0,False,0.0,0.0
2026-04-22T15:00:08.317050,202.22700149377425,2.7576071285660197,6.575165274330107,0.7799999713897705,100.0,0,False,STABILIZE,0.0,0.0,0.0,0.0,0.0,0.0,False,0.0,0.0
2026-04-22T15:00:08.363322,203.3860845959254,0.8862000760579352,6.329079108063248,0.7799999713897705,100.0,0,False,STABILIZE,0.0,0.0,0.0,0.0,0.0,0.0,False,0.0,0.0
2026-04-22T15:00:08.447023,204.67552868857544,0.9046632513232432,5.684035615960421,0.7799999713897705,100.0,0,False,STABILIZE,0.0,0.0,0.0,0.0,0.0,0.0,False,0.0,0.0
2026-04-22T15:00:08.505475,206.08012977063188,1.1517729854702519,5.418115861004315,0.7799999713897705,100.0,0,False,STABILIZE,0.0,0.0,0.0,0.0,0.0,0.0,False,0.0,0.0
2026-04-22T15:00:08.536332,207.5634146319269,1.3621894492920712,6.027035336360591,0.7799999713897705,100.0,0,False,STABILIZE,0.0,0.0,0.0,0.0,0.0,0.0,False,0.0,0.0
2026-04-22T15:00:08.575554,208.05606251638156,2.213293985682071,6.6554054829257705,0.7799999713897705,100.0,0,False,STABILIZE,0.0,0.0,0.0,0.0,0.0,0.0,False,0.0,0.0
2026-04-22T15:00:08.610282,208.40393771118866,3.3064000217718506,7.621078118349684,0.7799999713897705,100.0,0,False,STABILIZE,0.0,0.0,0.0,0.0,0.0,0.0,False,0.0,0.0
2026-04-22T15:00:08.660835,208.63205236908874,4.291946586689797,8.857093909990933,0.7799999713897705,100.0,0,False,STABILIZE,0.0,0.0,0.0,0.0,0.0,0.0,False,0.0,0.0
2026-04-22T15:00:08.710830,208.81395396706452,5.2289221823159,10.0123725967744,0.7799999713897705,100.0,0,True,STABILIZE,0.0,0.0,0.0,0.0,0.0,0.0,False,0.0,0.0
