timestamp,heading,pitch,roll,depth,battery_pct,battery_volt,arm,mode,m1,m2,m3,m4,m5,m6,leak,ping_ms,tether_m
2026-04-23T12:00:07.759210,0.0,0.0,10.0,0.0,100.0,0,False,STABILIZE,0.0,0.0,0.0,0.0,0.0,0.0,False,0.0,0.0
2026-04-23T12:00:07.809152,0.5,0.22499156259492134,9.999500004166652,3.0,75.0,0,False,STABILIZE,0.0,50.48825908847379,54.557845609540905,8.467200483592032,45.4081497184757,57.53545647978831,False,12.0,0.0
2026-04-23T12:00:07.864311,1.0,0.4499325030374349,9.998000066665778,3.0249998958334636,75.0,0,False,STABILIZE,2.9987501562406997,52.04539353564102,53.24174211800253,5.4878785339462315,47.3115152655717,56.61292011815439,False,12.149937507812036,0.0
2026-04-23T12:00:07.919686,1.5000000000000002,0.6747722105649037,9.995500337489876,3.0499991666708333,75.0,0,False,STABILIZE,5.990004998809689,53.47244160368612,51.79256199893242,2.4948397459974294,49.09662666386461,55.548880939663945,False,12.299500249940484,0.0
2026-04-23T12:00:07.974583,2.0,0.899460097191669,9.99200106660978,3.0749971875316406,75.0,0,False,STABILIZE,8.966287948415955,54.765836415631256,50.21392744790987,0.5044348420289171,50.75902206452679,54.34599848812227,False,12.448314397420798,0.0
2026-04-23T12:00:08.028332,2.5,1.123945609091135,9.987502603949663,3.0999933334666654,75.0,0,False,STABILIZE,11.920159847703673,55.92234515803358,48.50978422917541,3.502448605654805,52.29454634481529,53.00727934320919,False,12.596007992385184,0.0
2026-04-23T12:00:08.079876,3.0,1.3481782379701657,9.982005399352042,3.1249869795735616,75.0,0,False,STABILIZE,14.844237555271377,56.93907716133517,46.68439181327527,6.491708071806502,53.69936149371501,51.53606960559552,False,12.74221187776357,0.0
2026-04-23T12:00:08.135313,3.5,1.5721075324332372,9.975510002532795,3.1499775010124784,75.0,0,False,STABILIZE,17.731212399680373,57.813491125031575,44.742312730603224,9.464741648594893,54.969956204967296,49.93604653343407,False,12.886560619984019,0.0
2026-04-23T12:00:08.189556,3.9999999999999996,1.7956831093337902,9.968017063026194,3.174964273021681,75.0,0,False,STABILIZE,20.57386844732708,58.543401469599544,42.688401167450664,12.414118300403986,56.10315465350694,48.21120935112935,False,13.028693422366354,0.0
2026-04-23T12:00:08.244912,4.5,2.0188546651102244,9.959527330119943,3.199946670933171,75.0,0,False,STABILIZE,23.365100538519027,59.12698379930761,40.52779083306906,15.332466121609873,57.09612443337097,46.36586925335923,False,13.168255026925952,0.0
2026-04-23T12:00:08.298524,4.999999999999999,2.241571987103988,9.950041652780259,3.224924070188301,75.0,0,False,STABILIZE,26.09793204667381,59.56277946225531,38.26588212807022,18.21249076250576,57.94638363723833,44.40463862933366,False,13.30489660233369,0.0
2026-04-23T12:00:08.353928,5.499999999999999,2.463784964857214,9.939560979566968,3.249895846353392,75.0,0,False,STABILIZE,28.765532316252177,59.849699196243265,35.908328646237386,21.04699366137719,58.65180705990582,42.33241953422352,False,13.438276615812608,0.0
2026-04-23T12:00:08.405936,6.0,2.685443601387363,9.928086358538662,3.2748613751353384,75.0,0,False,STABILIZE,31.361233735839548,59.98702585136142,33.46102304348502,23.82889003715759,59.21063151019419,40.15439143657572,False,13.568061686791978,0.0
2026-04-23T12:00:08.461439,6.5,2.906498024436329,9.915618937147881,3.299820032397223,75.0,0,False,STABILIZE,33.87854840370212,59.97441618249031,30.93008230928785,26.551226597691148,59.62146021800786,37.875998272339295,False,13.693927420185107,0.0
2026-04-23T12:00:08.516249,7.000000000000001,3.126898497691494,9.90215996212637,3.324771194173913,75.0,0,False,STABILIZE,36.31118434416237,59.81190170723514,28.32183247739296,29.207198919341966,59.883266325532766,35.502934837860565,False,13.815559217208119,0.0
2026-04-23T12:00:08.571666,7.500000000000001,3.346595431976182,9.887710779360422,3.3497142366876638,75.0,0,False,STABILIZE,38.653061234261465,59.49988862714812,25.642792814029786,31.790168454509605,59.99539545384605,33.041132555858255,False,13.932653061713074,0.0
2026-04-23T12:00:08.625205,8.000000000000002,3.5655393964070194,9.87227283375627,3.3746485363637118,75.0,0,False,STABILIZE,40.89832560140005,59.03915681243622,22.899659523139903,34.293679124540624,59.95756733852268,30.496744649955502,False,14.044916280070002,0.0
2026-04-23T12:00:08.675788,8.500000000000002,3.7836811295156716,9.855847669095606,3.3995734698458637,75.0,0,False,STABILIZE,43.04136545397137,58.43085785269171,20.09928900935428,36.711473456563155,59.76987653015044,27.87613076482544,False,14.152068272698568,0.0
2026-04-23T12:00:08.731313,9.000000000000002,4.000971550332468,9.838436927881215,3.4244884140120804,75.0,0,False,STABILIZE,45.07682430841757,57.676512178517996,17.248680740552665,39.03750822391004,59.43279215800279,25.185841070391533,False,14.253841215420879,0.0
2026-04-23T12:00:08.789348,9.500000000000004,4.217361769429412,9.820042351172702,3.4493927459900555,75.0,0,False,STABILIZE,46.99961457764901,56.778005261244864,14.35495975283892,41.265969551038445,58.94715675745995,22.43259988981416,False,14.34998072888245,0.0
2026-04-23T12:00:08.838196,10.000000000000002,4.432803099920094,9.800665778412416,3.4742858431727868,75.0,0,False,STABILIZE,48.80493028736244,55.737582900232155,11.425358841661623,43.39128744519073,58.31418416410925,19.623288892184437,False,14.440246514368122,0.0
2026-04-23T12:00:08.893516,10.500000000000004,4.6472470684140434,9.780309147241482,3.499167083234141,75.0,0,False,STABILIZE,50.4882590884738,54.557845609540905,8.467200483592032,45.4081497184757,57.53545647978831,16.76492989193555,False,14.52441295442369,0.0
2026-04-23T12:00:08.946418,11.000000000000004,4.8606454259230265,9.758974493306056,3.5240358441444126,75.0,0,False,STABILIZE,52.045393535641026,53.24174211800251,5.487878533946205,47.311515265571735,56.612920118154385,13.864667297963482,False,14.60226967678205,0.0
2026-04-23T12:00:09.000759,11.500000000000004,5.07295015871687,9.736663950053748,3.548891504185874,75.0,0,False,STABILIZE,53.47244160368613,51.792561998932406,2.4948397459974028,49.09662666386465,55.548880939663924,10.9297502563257,False,14.673622080184307,0.0
2026-04-23T12:00:09.054985,12.000000000000004,5.2841134991263505,9.713379748520296,3.5737334419683195,75.0,0,False,STABILIZE,54.76583641563127,50.21392744790985,0.5044348420289437,50.75902206452679,54.34599848812227,7.9675145311510045,False,14.738291820781564,0.0
2026-04-23T12:00:09.108999,12.500000000000004,5.494087936290716,9.689124217106448,3.5985610364445972,75.0,0,False,STABILIZE,55.92234515803359,48.50978422917541,3.502448605654805,52.29454634481529,53.00727934320919,4.985364169049784,False,14.79611725790168,0.0
2026-04-23T12:00:09.163076,13.000000000000005,5.7028262268474235,9.663899781345132,3.6233736669261387,75.0,0,False,STABILIZE,56.93907716133518,46.68439181327526,6.491708071806529,53.69936149371501,51.53606960559552,1.990752992853409,False,14.846953858066758,0.0
2026-04-23T12:00:09.217095,13.500000000000005,5.910281405561708,9.637708963658906,3.648170713098475,75.0,0,False,STABILIZE,57.81349112503158,44.74231273060318,9.464741648594945,54.96995620496732,49.93604653343405,1.008834029061036,False,14.890674556251579,0.0
2026-04-23T12:00:09.272248,14.000000000000005,6.116406795893555,9.61055438310771,3.6729515550367418,75.0,0,False,STABILIZE,58.54340146959955,42.68840116745064,12.414118300404011,56.10315465350696,48.21120935112932,4.0058994912933805,False,14.927170073479978,0.0
2026-04-23T12:00:09.324941,14.500000000000007,6.321156020499723,9.58243875512697,3.6977155732211826,75.0,0,False,STABILIZE,59.12698379930762,40.527790833069034,15.332466121609901,57.09612443337097,46.36586925335923,6.992952291029618,False,14.95634918996538,0.0
2026-04-23T12:00:09.380374,15.000000000000007,6.5244830116684565,9.55336489125606,3.7224621485526326,75.0,0,False,STABILIZE,59.562779462255314,38.265882128070196,18.212490762505787,57.94638363723834,44.40463862933362,9.962526351897486,False,14.978138973112767,0.0
2026-04-23T12:00:09.435961,15.500000000000007,6.72634202168452,9.523335698857133,3.7471906623679967,75.0,0,False,STABILIZE,59.849699196243265,35.908328646237344,21.04699366137724,58.651807059905835,42.332419534223476,12.907199285268984,False,14.992484959812163,0.0
2026-04-23T12:00:09.491428,16.000000000000007,6.926687633122246,9.492354180824409,3.7719004964557175,75.0,0,False,STABILIZE,59.98702585136142,33.46102304348498,23.828890037157635,59.2106315101942,40.15439143657568,15.819610942366753,False,14.999351292568072,0.0
2026-04-23T12:00:09.544238,16.500000000000007,7.125474769064264,9.460423435283868,3.7965910330712305,75.0,0,False,STABILIZE,59.97441618249031,30.93008230928783,26.55122659769117,59.62146021800787,37.87599827233926,18.69248181080272,False,14.998720809124515,0.0
2026-04-23T12:00:09.598498,17.000000000000007,7.322658703243616,9.427546655283463,3.8212616549524054,75.0,0,False,STABILIZE,59.81190170723513,28.321832477392913,29.20719891934201,59.883266325532766,35.502934837860565,21.51863120956802,False,14.990595085361756,0.0
2026-04-23T12:00:09.653989,17.500000000000007,7.51819507010697,9.393727128473788,3.8459117453349805,75.0,0,False,STABILIZE,59.49988862714811,25.64279281402974,31.790168454509644,59.99539545384606,33.04113255585821,24.290995236995947,False,14.974994431357405,0.0
2026-04-23T12:00:09.707232,18.00000000000001,7.7120398747967,9.358968236779347,3.8705406879679805,75.0,0,False,STABILIZE,59.039156812436204,22.899659523139853,34.293679124540674,59.95756733852267,30.496744649955456,27.002644426837104,False,14.95195784062181,0.0
2026-04-23T12:00:09.758755,18.50000000000001,7.904149503049524,9.323273456060344,3.8951478671291215,75.0,0,False,STABILIZE,58.430857852691695,20.099289009354255,36.711473456563176,59.769876530150434,27.876130764825394,29.646801068316535,False,14.921542892634584,0.0
2026-04-23T12:00:09.810197,19.00000000000001,8.094480731009543,9.286646355765102,3.919732667640207,75.0,0,False,STABILIZE,57.67651217851798,17.248680740552615,39.03750822391008,59.432792158002776,25.185841070391483,32.21685614688075,False,14.8838256089259,0.0
2026-04-23T12:00:09.865375,19.50000000000001,8.282990734953419,9.24909059857313,3.9442944748825033,75.0,0,False,STABILIZE,56.77800526124485,14.354959752838868,41.26596955103849,58.947156757459936,22.43259988981411,34.706385863292056,False,14.838900263062243,0.0
2026-04-23T12:00:09.920574,20.000000000000007,8.469637100925532,9.21060994002885,3.96883267481211,75.0,0,False,STABILIZE,55.737582900232134,11.425358841661572,43.39128744519076,58.314184164109236,19.623288892184387,37.10916768978148,False,14.786879145011607,0.0
2026-04-23T12:00:09.975757,20.500000000000007,8.654377834280956,9.17120822816605,3.9933466539753066,75.0,0,False,STABILIZE,54.557845609540884,8.46720048359198,45.408149718475734,57.535456479788294,16.764929891935502,39.41919592312738,False,14.727892280477043,0.0
2026-04-23T12:00:10.031101,21.000000000000007,8.837171369134044,9.130889403123083,4.0178357995238905,75.0,0,False,STABILIZE,53.241742118002506,5.487878533946179,47.311515265571735,56.612920118154385,13.864667297963482,41.63069669578586,False,14.662087105900126,0.0
2026-04-23T12:00:10.085334,21.500000000000004,9.017976577710618,9.08965749674885,4.042299499230499,75.0,0,False,STABILIZE,51.792561998932406,2.4948397459974028,49.09662666386465,55.548880939663924,10.9297502563257,43.73814240755259,False,14.589628099946621,0.0
2026-04-23T12:00:10.140455,22.0,9.196752779601507,9.047516632199633,4.0667371415039115,75.0,0,False,STABILIZE,50.21392744790985,0.5044348420289437,50.75902206452679,54.34599848812227,7.9675145311510045,45.73626554168467,False,14.510696372395493,0.0
2026-04-23T12:00:10.195138,22.5,9.373459750915497,9.004471023526769,4.091148115404347,75.0,0,False,STABILIZE,48.50978422917541,3.502448605654805,52.29454634481529,53.00727934320919,4.985364169049784,47.620071830949186,False,14.425489211458771,0.0
2026-04-23T12:00:10.250327,23.0,9.548057733329518,8.960524975255254,4.1155318106587275,75.0,0,False,STABILIZE,46.68439181327527,6.491708071806502,53.69936149371501,51.53606960559552,1.990752992853409,49.38485274069033,False,14.334219590663764,0.0
2026-04-23T12:00:10.303298,23.499999999999996,9.720507443034107,8.91568288195329,4.139887617675942,75.0,0,False,STABILIZE,44.742312730603224,9.464741648594893,54.969956204967296,49.93604653343407,1.0088340290609827,51.026197237713866,False,14.237115636530161,0.0
2026-04-23T12:00:10.358752,23.999999999999993,9.890770079572096,8.869949227792842,4.1642149275620834,75.0,0,False,STABILIZE,42.68840116745068,12.41411830040396,56.10315465350694,48.21120935112935,4.005899491293327,52.54000281557293,False,14.134420058372534,0.0
2026-04-23T12:00:10.411771,24.499999999999993,10.058807334568554,8.823328586101216,4.188513132135673,75.0,0,False,STABILIZE,40.527790833069076,15.332466121609848,57.096124433370946,46.365869253359264,6.992952291029566,53.922485748697596,False,14.026389541653455,0.0
2026-04-23T12:00:10.467156,24.999999999999993,10.224581400350008,8.775825618903728,4.21278162394286,75.0,0,False,STABILIZE,38.26588212807026,18.21249076250571,57.94638363723832,44.4046386293337,9.962526351897381,55.17019054973822,False,13.913294106403512,0.0
2026-04-23T12:00:10.520168,25.49999999999999,10.388054978451015,8.727445076457514,4.237019796272614,75.0,0,False,STABILIZE,35.908328646237436,21.04699366137714,58.65180705990581,42.332419534223554,12.907199285268879,56.27999860648431,False,13.795416432311871,0.0
2026-04-23T12:00:10.574903,25.999999999999986,10.54919128800615,8.678191796776499,4.26122704317189,75.0,0,False,STABILIZE,33.46102304348506,23.82889003715754,59.21063151019418,40.15439143657576,15.81961094236665,57.24913597677087,False,13.673051152174253,0.0
2026-04-23T12:00:10.627645,26.499999999999986,10.707954074025547,8.62807070514761,4.285402759460775,75.0,0,False,STABILIZE,30.930082309287915,26.551226597691077,59.621460218007854,37.87599827233934,18.69248181080262,58.075180321889164,False,13.546504115464396,0.0
2026-04-23T12:00:10.683085,26.999999999999986,10.864307615552132,8.577086813638243,4.309546340747621,75.0,0,False,STABILIZE,28.321832477393027,29.20719891934189,59.88326632553276,35.50293483786065,21.51863120956792,58.756066961171975,False,13.41609162386965,0.0
2026-04-23T12:00:10.736771,27.499999999999982,11.018216733698672,8.525245220595059,4.333657183444155,75.0,0,False,STABILIZE,25.64279281402988,31.790168454509512,59.99539545384605,33.04113255585835,24.2909952369958,59.29009403262001,False,13.282139640701494,0.0
2026-04-23T12:00:10.792199,27.99999999999998,11.169646799562884,8.472551110134162,4.357734684780564,75.0,0,False,STABILIZE,22.89965952314,34.29367912454054,59.95756733852268,30.496744649955588,27.00264442683696,59.675926746670555,False,13.144982976157,0.0
2026-04-23T12:00:10.847470,28.49999999999998,11.318563742018787,8.419009751622688,4.381778242820568,75.0,0,False,STABILIZE,20.099289009354408,36.71147345656305,59.76987653015045,27.876130764825536,29.646801068316396,59.91260072247629,False,13.004964450467721,0.0
2026-04-23T12:00:10.902855,28.99999999999998,11.46493405538257,8.364626499151873,4.4057872564764695,75.0,0,False,STABILIZE,17.248680740552793,39.03750822390994,59.43279215800281,25.185841070391678,32.21685614688057,59.99952439835512,False,12.86243403702764,0.0
2026-04-23T12:00:10.955170,29.499999999999975,11.60872480695122,8.309406791001638,4.429761125524177,75.0,0,False,STABILIZE,14.354959752839074,41.265969551038324,58.94715675745998,22.432599889814313,34.70638586329188,59.936480510386325,False,12.717747987641953,0.0
2026-04-23T12:00:11.008001,29.99999999999997,11.749903644412242,8.253356149096785,4.453699250618213,75.0,0,False,STABILIZE,11.425358841661781,43.39128744519062,58.31418416410928,19.62328889218459,37.10916768978131,59.72362663545721,False,12.57126794208309,0.0
2026-04-23T12:00:11.061265,30.49999999999997,11.88843880312281,8.196480178454799,4.477601033306697,75.0,0,False,STABILIZE,8.46720048359219,45.40814971847559,57.53545647978835,16.764929891935704,39.419195923127226,59.361494797402926,False,12.42336002417961,0.0
2026-04-23T12:00:11.118419,30.99999999999997,12.024299113256648,8.138784566625342,4.501465876046306,75.0,0,False,STABILIZE,5.4878785339463905,47.3115152655716,56.61292011815445,13.86466729796369,41.63069669578571,58.85099013722401,False,12.27439392669732,0.0
2026-04-23T12:00:11.173995,31.499999999999968,12.157454006817137,8.080275083121522,4.525293182217216,75.0,0,False,STABILIZE,2.494839745997616,49.09662666386453,55.54888093966401,10.92975025632591,43.738142407552445,58.1933886507052,False,12.124741987299881,0.0
2026-04-23T12:00:11.227825,31.999999999999964,12.287873524514966,8.02095757884293,4.549082356138013,75.0,0,False,STABILIZE,0.5044348420287306,50.759022064526675,54.34599848812236,7.967514531151216,45.73626554168453,57.39033399909061,False,11.974778257898564,0.0
2026-04-23T12:00:11.283515,32.499999999999964,12.415528322508855,7.960837985490562,4.572832803080587,75.0,0,False,STABILIZE,3.5024486056545925,52.29454634481519,53.00727934320929,4.985364169049996,47.62007183094906,56.44383340078646,False,11.82487756971727,0.0
2026-04-23T12:00:11.336770,32.999999999999964,12.540389679007799,7.899922314973655,4.596543929285003,75.0,0,False,STABILIZE,6.491708071806291,53.69936149371492,51.536069605595635,1.990752992853622,49.38485274069021,55.35625261436049,False,11.675414596409686,0.0
2026-04-23T12:00:11.392431,33.49999999999996,12.662429500733337,7.838216658808498,4.62021514197434,75.0,0,False,STABILIZE,9.464741648594682,54.969956204967204,49.936046533434194,1.0088340290607696,51.02619723771375,54.13031002537769,False,11.526762917570267,0.0
2026-04-23T12:00:11.444761,33.99999999999996,12.781620329240434,7.7757271875092835,4.643845849369514,75.0,0,False,STABILIZE,12.414118300403752,56.10315465350686,48.211209351129476,4.005899491293115,52.540002815572834,52.769069851851995,False,11.379294084979813,0.0
2026-04-23T12:00:11.500705,34.49999999999996,12.897935347095508,7.712460149971071,4.66743546070407,75.0,0,False,STABILIZE,15.332466121609643,57.09612443337088,46.36586925335939,6.992952291029354,53.9224857486975,51.27593448529699,False,11.233376693919517,0.0
2026-04-23T12:00:11.552892,34.99999999999996,13.011348383910244,7.64842187284489,4.690983386238955,75.0,0,False,STABILIZE,18.212490762505507,57.94638363723826,44.40463862933384,9.962526351897171,55.17019054973814,49.65463598651916,False,11.089375461874724,0.0
2026-04-23T12:00:11.604041,35.49999999999996,13.121833922229813,7.583618759905088,4.7144890372772545,75.0,0,False,STABILIZE,21.04699366137694,58.651807059905764,42.3324195342237,12.907199285268671,56.27999860648424,47.90922675740954,False,10.947650316931153,0.0
2026-04-23T12:00:11.658446,35.99999999999995,13.229367103274202,7.518057291408956,4.73795182617892,75.0,0,False,STABILIZE,23.828890037157343,59.210631510194155,40.15439143657592,15.819610942366443,57.24913597677081,46.04406941204944,False,10.808555498142134,0.0
2026-04-23T12:00:11.711904,36.49999999999995,13.333923732531328,7.451744023448709,4.761371166375447,75.0,0,False,STABILIZE,26.551226597690885,59.62146021800784,37.8759982723395,18.69248181080242,58.075180321889114,44.06382587244702,False,10.672438670115456,0.0
2026-04-23T12:00:11.767397,36.99999999999995,13.435480285200702,7.384685587295886,4.784746472384555,75.0,0,False,STABILIZE,29.20719891934171,59.883266325532745,35.50293483786082,21.518631209567722,58.75606696117194,41.97344571616031,False,10.539640054032915,0.0
2026-04-23T12:00:11.820371,37.49999999999994,13.534013911486419,7.316888688738215,4.8080771598248075,75.0,0,False,STABILIZE,31.79016845450933,59.99539545384605,33.041132555858525,24.29099523699561,59.290094032619976,39.77815380493116,False,10.410491577274534,0.0
2026-04-23T12:00:11.874417,37.99999999999994,13.62950244173824,7.248360107409059,4.831362645430236,75.0,0,False,STABILIZE,34.29367912454036,59.957567338522686,30.496744649955776,27.00264442683677,59.675926746670534,37.48343722525179,False,10.285316043772982,0.0
2026-04-23T12:00:11.929816,38.49999999999994,13.721924391439702,7.179106696109441,4.854602347064911,75.0,0,False,STABILIZE,36.711473456562885,59.76987653015047,27.876130764825724,29.646801068316215,59.91260072247628,35.09503157350605,False,10.164426327171856,0.0
2026-04-23T12:00:11.985168,38.99999999999994,13.811258966042024,7.109135380122781,4.877795683737503,75.0,0,False,STABILIZE,39.03750822390978,59.43279215800283,25.18584107039187,32.216856146880396,59.99952439835512,32.61890661996557,False,10.04812458880451,0.0
2026-04-23T12:00:12.036978,39.49999999999994,13.897486065642799,7.03845315652237,4.900942075615805,75.0,0,False,STABILIZE,41.265969551038175,58.947156757460014,22.432599889814508,34.70638586329171,59.93648051038634,30.06125138747336,False,9.936701522448091,0.0
2026-04-23T12:00:12.092582,39.999999999999936,13.980586289508386,6.9670670934716625,4.924040944041222,75.0,0,False,STABILIZE,43.39128744519047,58.314184164109335,19.623288892184792,37.109167689781145,59.72362663545723,27.428458682109635,False,9.830435627740476,0.0
2026-04-23T12:00:12.145126,40.499999999999936,14.060540940438987,6.894984329517479,4.94709171154325,75.0,0,False,STABILIZE,45.40814971847545,57.535456479788415,16.76492989193591,39.41919592312706,59.36149479740296,24.727109114505783,False,9.729592514076227,0.0
2026-04-23T12:00:12.199687,40.999999999999936,14.137332028975452,6.822212072876145,4.970093801853899,75.0,0,False,STABILIZE,47.31151526557147,56.61292011815452,13.864667297963898,41.63069669578555,58.85099013722406,21.96395465174506,False,9.634424236721426,0.0
2026-04-23T12:00:12.253624,41.49999999999993,14.210942277446822,6.748757600712681,4.993046639922111,75.0,0,False,STABILIZE,49.0966266638644,55.54888093966409,10.92975025632612,43.7381424075523,58.19338865070526,19.14590174096143,False,9.54516866680678,0.0
2026-04-23T12:00:12.309128,41.99999999999993,14.281355123857725,6.674628258413091,5.01594965192813,75.0,0,False,STABILIZE,50.75902206452656,54.34599848812245,7.9675145311514255,45.7362655416844,57.39033399909067,16.279994046818373,False,9.462048896773672,0.0
2026-04-23T12:00:12.364467,42.49999999999993,14.34855472561478,6.599831458849832,5.038802265297848,75.0,0,False,STABILIZE,52.294546344815075,53.00727934320939,4.985364169050209,47.62007183094893,56.44383340078653,13.373394846015275,False,9.385272682759247,0.0
2026-04-23T12:00:12.420051,42.99999999999993,14.41252596309108,6.524374681640529,5.061603908717121,75.0,0,False,STABILIZE,53.699361493714825,51.53606960559574,1.990752992853835,49.384852740690086,55.356252614360585,10.433369122826432,False,9.315031925314258,0.0
2026-04-23T12:00:12.475153,43.49999999999993,14.473254443028074,6.448265472400023,5.084354012146051,75.0,0,False,STABILIZE,54.96995620496712,49.93604653343431,1.0088340290605564,51.02619723771364,54.13031002537778,7.467265410424125,False,9.251502189751644,0.0
2026-04-23T12:00:12.530885,43.99999999999992,14.53072650177397,6.371511441985813,5.1070520068332375,75.0,0,False,STABILIZE,56.10315465350679,48.211209351129604,4.005899491292903,52.540002815572734,52.769069851852095,4.482497423372512,False,9.19484226732466,0.0
2026-04-23T12:00:12.586306,44.49999999999992,14.584929208358009,6.294120265736981,5.129697325329994,75.0,0,False,STABILIZE,57.09612443337081,46.365869253359534,6.992952291029142,53.922485748697405,51.27593448529711,1.4865255272019988,False,9.145193778331459,0.0
2026-04-23T12:00:12.643257,44.99999999999992,14.635850367399877,6.216099682706656,5.152289401504541,75.0,0,False,STABILIZE,57.946383637238206,44.40463862933398,9.962526351896962,55.17019054973805,49.654635986519274,1.513161908619097,False,9.10268081813809,0.0
2026-04-23T12:00:12.695375,45.499999999999915,14.683478521853612,6.137457494888128,5.174827670556148,75.0,0,False,STABILIZE,58.65180705990572,42.33241953422385,12.907199285268463,56.27999860648417,47.90922675740968,4.509067227708133,False,9.067409647004714,0.0
2026-04-23T12:00:12.751210,45.999999999999915,14.727802955585389,6.058201566434641,5.197311569029262,75.0,0,False,STABILIZE,59.21063151019412,40.15439143657608,15.81961094236624,57.249135976770745,46.04406941204958,7.4937022270046105,False,9.039468424490295,0.0
2026-04-23T12:00:12.805130,46.499999999999915,14.768813695784612,5.978339822872996,5.219740534827595,75.0,0,False,STABILIZE,59.62146021800781,37.87599827233967,18.692481810802214,58.07518032188906,44.06382587244717,10.459606873378252,False,9.01892698909961,0.0
2026-04-23T12:00:12.856705,46.999999999999915,14.80650151520775,5.897880250310996,5.242114007228169,75.0,0,False,STABILIZE,59.88326632553273,35.502934837861,21.518631209567527,58.75606696117189,41.97344571616047,13.399367949826514,False,9.005836683723363,0.0
2026-04-23T12:00:12.912085,47.499999999999915,14.840857934254423,5.81683089463885,5.264431426895338,75.0,0,False,STABILIZE,59.99539545384605,33.0411325558587,24.29099523699541,59.29009403261994,39.77815380493132,16.305637584656136,False,9.000230227307696,0.0
2026-04-23T12:00:12.965199,47.99999999999991,14.87187522287529,5.735199860724581,5.286692235894773,75.0,0,False,STABILIZE,59.9575673385227,30.496744649955957,27.002644426836582,59.67592674667051,37.48343722525196,19.171151617335912,False,9.002121633073866,0.0
2026-04-23T12:00:13.019453,48.49999999999991,14.899546402311266,5.652995311603558,5.3088958777074104,75.0,0,False,STABILIZE,59.76987653015049,27.876130764825916,29.646801068316027,59.91260072247626,35.09503157350622,21.98874775511511,False,9.011506173492476,0.0
2026-04-23T12:00:13.075265,48.99999999999991,14.92386524666371,5.570225467662188,5.33104179724336,75.0,0,False,STABILIZE,59.43279215800287,25.185841070392062,32.21685614688021,59.99952439835512,32.618906619965756,24.751383475025076,False,9.028360392099856,0.0
2026-04-23T12:00:13.127607,49.4999999999999,14.944826284295239,5.486898605815892,5.353129440855787,75.0,0,False,STABILIZE,58.94715675746006,22.432599889814703,34.70638586329153,59.936480510386346,30.061251387473543,27.452153626518808,False,9.052642162126997,0.0
2026-04-23T12:00:13.183009,49.9999999999999,14.962424799060813,5.403023058681413,5.37515825635475,75.0,0,False,STABILIZE,58.314184164109385,19.62328889218499,37.109167689780975,59.72362663545725,27.428458682109824,30.08430769075138,False,9.084290791794531,0.0
2026-04-23T12:00:13.240121,50.4999999999999,14.976656831368857,5.318607213743571,5.397127693021011,75.0,0,False,STABILIZE,57.53545647978847,16.764929891936113,39.41919592312691,59.361494797403,24.727109114505975,32.641266653361654,False,9.123227176010577,0.0
2026-04-23T12:00:13.295538,50.9999999999999,14.98751917907214,5.233659512516513,5.419037201619796,75.0,0,False,STABILIZE,56.61292011815459,13.864667297964104,41.6306966957854,58.850990137224095,21.963954651745258,35.116639448581665,False,9.16935399409227,0.0
2026-04-23T12:00:13.350905,51.4999999999999,14.995009398188252,5.14818844969957,5.440886234414533,75.0,0,False,STABILIZE,55.548880939664166,10.929750256326331,43.738142407552154,58.19338865070531,19.14590174096163,37.50423893357251,False,9.22255595301679,0.0
2026-04-23T12:00:13.406403,51.99999999999989,14.999125803449495,5.0622025723278,5.462674245180539,75.0,0,False,STABILIZE,54.34599848812254,7.967514531151637,45.73626554168426,57.390333999090736,16.27999404681858,39.798097353059404,False,9.282700075593873,0.0
2026-04-23T12:00:13.461247,52.49999999999989,14.999867468682048,4.975710478917289,5.484400689218679,75.0,0,False,STABILIZE,53.00727934320949,4.985364169050421,47.6200718309488,56.44383340078661,13.373394846015483,41.992481255612084,False,9.349636032839525,0.0
2026-04-23T12:00:13.515968,52.99999999999989,14.997234227014363,4.888720818605295,5.5060650233689845,75.0,0,False,STABILIZE,51.53606960559585,1.9907529928540482,49.384852740689965,55.35625261436066,10.433369122826642,44.08190582428729,False,9.423196519720207,0.0
2026-04-23T12:00:13.571214,53.499999999999886,14.99122667091471,4.80124229028536,5.52766670602423,75.0,0,False,STABILIZE,49.93604653343443,1.0088340290603433,51.02619723771353,54.130310025377874,7.467265410424337,46.061148585814536,False,9.503197673328279,0.0
2026-04-23T12:00:13.626767,53.999999999999886,14.981846152057862,4.713283641737419,5.549205197143474,75.0,0,False,STABILIZE,48.21120935112973,4.0058994912926895,52.54000281557262,52.769069851852194,4.482497423372724,47.925262464059635,False,9.589439532443514,0.0
2026-04-23T12:00:13.678695,54.499999999999886,14.969094781020992,4.624853668753028,5.570679958265561,75.0,0,False,STABILIZE,46.36586925335967,6.992952291028931,53.92248574869731,51.27593448529722,1.4865255272022118,49.6695881451388,False,9.681706537332015,0.0
2026-04-23T12:00:13.732996,54.999999999999886,14.952975426808786,4.535961214255795,5.59209045252258,75.0,0,False,STABILIZE,44.40463862933413,9.96252635189675,55.17019054973797,49.654635986519395,1.5131619086188839,51.28976572327664,False,9.779768068533294,0.0
2026-04-23T12:00:13.785738,55.499999999999886,14.933491716207941,4.4466151674170895,5.61343614465329,75.0,0,False,STABILIZE,42.33241953422401,12.907199285268256,56.27999860648409,47.909226757409805,4.509067227707921,52.781745598299906,False,9.8833790232888,0.0
2026-04-23T12:00:13.841145,55.99999999999988,14.910648032971146,4.356824462767142,5.634716501016502,75.0,0,False,STABILIZE,40.15439143657623,15.819610942366033,57.24913597677068,46.044069412049716,7.493702227004399,54.141798597529096,False,9.992280428171188,0.0
2026-04-23T12:00:13.896375,56.49999999999988,14.884449516830754,4.266598079301594,5.655930989604412,75.0,0,False,STABILIZE,37.87599827233983,18.69248181080201,58.07518032188901,44.06382587244731,10.459606873378043,55.36652529676811,False,10.106200086383009,0.0
2026-04-23T12:00:13.951818,56.99999999999988,14.85490206234238,4.175945039583602,5.677079080055912,75.0,0,False,STABILIZE,35.50293483786116,21.518631209567324,58.756066961171854,41.97344571616061,13.399367949826306,56.45286451709422,False,10.224853258106942,0.0
2026-04-23T12:00:14.007060,57.49999999999987,14.822012317558622,4.084874408841596,5.698160243669841,75.0,0,False,STABILIZE,33.04113255585888,24.29099523699522,59.29009403261991,39.77815380493148,16.30563758465593,57.39810097621108,False,10.347943372207055,0.0
2026-04-23T12:00:14.061279,57.99999999999987,14.785787682533313,3.993395294062755,5.719173953418208,75.0,0,False,STABILIZE,30.496744649956142,27.00264442683639,59.675926746670484,37.483437225252125,19.17115161733571,58.19987207524053,False,10.475162767502193,0.0
2026-04-23T12:00:14.115177,58.49999999999987,14.746236307656506,3.9015168430823257,5.740119683959362,75.0,0,False,STABILIZE,27.8761307648261,29.64680106831584,59.912600722476256,35.0950315735064,21.98874775511491,58.85617380398933,False,10.606193461758695,0.0
2026-04-23T12:00:14.170410,58.99999999999987,14.703367091820693,3.809248243668841,5.760996911651133,75.0,0,False,STABILIZE,25.185841070392257,32.21685614688003,59.99952439835512,32.618906619965934,24.751383475024884,59.36536574993095,False,10.740707946480388,0.0
2026-04-23T12:00:14.225028,59.49999999999987,14.657189680418588,3.7165987226053527,5.781805114563914,75.0,0,False,STABILIZE,22.432599889814902,34.70638586329136,59.93648051038636,30.061251387473725,27.452153626518616,59.72617519838257,False,10.878370005509254,0.0
2026-04-23T12:00:14.281414,59.999999999999865,14.60771446317294,3.623577544766761,5.802543772493715,75.0,0,False,STABILIZE,19.623288892185194,37.109167689780804,59.723626635457265,27.428458682110012,30.084307690751196,59.93770031362897,False,11.01883555539074,0.0
2026-04-23T12:00:14.340888,60.499999999999865,14.554952571798916,3.5301940121933284,5.823212366975172,75.0,0,False,STABILIZE,16.764929891936323,39.41919592312674,59.36149479740302,24.72710911450617,32.64126665336148,59.999412393042206,False,11.161753505403183,0.0
2026-04-23T12:00:14.392643,60.999999999999865,14.49891587749948,3.4364574631604956,5.843810381294495,75.0,0,False,STABILIZE,13.864667297964312,41.63069669578525,58.85099013722414,21.963954651745453,35.116639448581495,59.91115718856277,False,11.306766635101784,0.0
2026-04-23T12:00:14.447795,61.49999999999986,14.43961698829445,3.3423772712450512,5.864337300502401,75.0,0,False,STABILIZE,10.929750256326539,43.738142407552004,58.193388650705366,19.145901740961833,37.50423893357234,59.67315529223943,False,11.453512487183673,0.0
2026-04-23T12:00:14.500873,61.99999999999986,14.37706924618373,3.247962844387788,5.884792611426978,75.0,0,False,STABILIZE,7.967514531151848,45.73626554168412,57.39033399909079,16.279994046818786,39.79809735305924,59.28600158486402,False,11.601624273442408,0.0
2026-04-23T12:00:14.552653,62.49999999999986,14.311286724145427,3.153223623952712,5.90517580268652,75.0,0,False,STABILIZE,4.985364169050634,47.620071830948675,56.44383340078668,13.37339484601569,41.992481255611935,58.750663749079216,False,11.750731791547468,0.0
2026-04-23T12:00:14.607148,62.99999999999986,14.242284222969477,3.0581690837829205,5.925486364702305,75.0,0,False,STABILIZE,1.9907529928542613,49.384852740689844,55.35625261436074,10.433369122826853,44.08190582428715,58.0684798506759,False,11.900462350357287,0.0
2026-04-23T12:00:14.657546,63.49999999999986,14.170077267927546,2.9628087292532146,5.945723789711342,75.0,0,False,STABILIZE,1.0088340290601303,51.02619723771342,54.13031002537797,7.467265410424549,46.0611485858144,57.241154994125594,False,12.050441701453007,0.0
2026-04-23T12:00:14.713529,63.99999999999985,14.094682105279897,2.8671520963195825,5.965887571779059,75.0,0,False,STABILIZE,4.005899491292477,52.54000281557252,52.7690698518523,4.482497423372937,47.92526246405951,56.27075706070725,False,12.200294974564624,0.0
2026-04-23T12:00:14.766308,64.49999999999986,14.016115698620053,2.7712087505656036,5.985977206811954,75.0,0,False,STABILIZE,6.992952291028719,53.92248574869721,51.27593448529733,1.486525527202425,49.66958814513868,55.15971153988092,False,12.349647614551436,0.0
2026-04-23T12:00:14.822665,64.99999999999984,13.934395725058067,2.674988286245901,6.005992192570199,75.0,0,False,STABILIZE,9.96252635189654,55.17019054973788,49.65463598651952,1.513161908618671,51.289765723276524,53.910795466827295,False,12.498126317594828,0.0
2026-04-23T12:00:14.877874,65.49999999999984,13.849540571243228,2.5785003253267265,6.025932028680192,75.0,0,False,STABILIZE,12.907199285268046,56.279998606484014,47.909226757409925,4.509067227707708,52.7817455982998,52.52713048130612,False,12.645359964263402,0.0
2026-04-23T12:00:14.933470,65.99999999999984,13.761569329227175,2.4817545165237593,6.045796216647068,75.0,0,False,STABILIZE,15.819610942365827,57.24913597677062,46.04406941204985,7.493702227004187,54.141798597529004,51.01217502518248,False,12.790980547118291,0.0
2026-04-23T12:00:14.987035,66.49999999999984,13.670501792168231,2.3847605343372615,6.065584259867163,75.0,0,False,STABILIZE,18.69248181080181,58.07518032188895,44.06382587244745,10.459606873377833,55.366525296768025,49.36971569812308,False,12.93462409054009,0.0
2026-04-23T12:00:15.041237,66.99999999999984,13.576358449878043,2.287528078084624,6.085295663640427,75.0,0,False,STABILIZE,21.518631209567125,58.756066961171804,41.97344571616077,13.399367949826097,56.45286451709414,47.60385779306921,False,13.075931560478356,0.0
2026-04-23T12:00:15.095186,67.49999999999984,13.479160484211471,2.1900668709304454,6.104929935182792,75.0,0,False,STABILIZE,24.290995236995023,59.290094032619876,39.77815380493164,16.305637584655724,57.398100976211026,45.719015035142554,False,13.214549761849751,0.0
2026-04-23T12:00:15.150952,67.99999999999984,13.378929764300727,2.0923866589142253,6.124486583638493,75.0,0,False,STABILIZE,27.002644426836202,59.67592674667047,37.48343722525229,19.17115161733551,58.19987207524048,43.71989854963086,False,13.35013222134181,0.0
2026-04-23T12:00:15.204375,68.49999999999983,13.275688841634956,1.9944972099757612,6.143965120092336,75.0,0,False,STABILIZE,29.646801068315657,59.91260072247625,35.09503157350657,21.988747755114712,58.856173803989286,41.61150508662811,False,13.482340053415783,0.0
2026-04-23T12:00:15.255140,68.99999999999983,13.169460944986207,1.896408312978375,6.163365057581926,75.0,0,False,STABILIZE,32.216856146879856,59.99952439835512,32.618906619966104,24.75138347502469,59.36536574993092,39.399104531761644,False,13.610842807343992,0.0
2026-04-23T12:00:15.307818,69.49999999999983,13.060269975183083,1.7981297767300264,6.182685911109834,75.0,0,False,STABILIZE,34.70638586329119,59.93648051038637,30.06125138747391,27.452153626518427,59.72617519838255,37.08822673422276,False,13.73531929316456,0.0
2026-04-23T12:00:15.366135,69.99999999999983,12.948140499733146,1.6996714290024408,6.201927197655729,75.0,0,False,STABILIZE,37.10916768978064,59.723626635457286,27.4284586821102,30.084307690751015,59.937700313628966,34.68464768502349,False,13.855458384489031,0.0
2026-04-23T12:00:15.421579,70.49999999999983,12.833097747295325,1.6010431155483458,6.221088436188449,75.0,0,False,STABILIZE,39.41919592312659,59.361494797403054,24.727109114506366,32.64126665336129,59.99941239304221,32.194375080026994,False,13.970959796156329,0.0
2026-04-23T12:00:15.475784,70.99999999999983,12.71516760200359,1.5022546991168915,6.24016914767803,75.0,0,False,STABILIZE,41.6306966957851,58.85099013722418,21.963954651745652,35.116639448581324,59.91115718856278,29.623633303836773,False,14.081534834789254,0.0
2026-04-23T12:00:15.531326,71.49999999999983,12.594376597643112,1.4033160584674,6.259168855107677,75.0,0,False,STABILIZE,43.73814240755186,58.19338865070541,19.14590174096204,37.504238933572175,59.67315529223945,26.978847872076944,False,14.186907120377594,0.0
2026-04-23T12:00:15.585249,71.99999999999983,12.470751911680292,1.3042370873814884,6.278087083485695,75.0,0,False,STABILIZE,45.736265541683984,57.390333999090856,16.27999404681899,39.79809735305908,59.28600158486405,24.26662937094938,False,14.2868132770842,0.0
2026-04-23T12:00:15.640740,72.49999999999983,12.344321359147937,1.2050276936736992,6.2969233598573595,75.0,0,False,STABILIZE,47.62007183094854,56.443833400786744,13.373394846015897,41.99248125561178,58.75066374907926,21.49375693421072,False,14.381003591547426,0.0
2026-04-23T12:00:15.694466,72.99999999999982,12.215113386386985,1.1056977982007312,6.315677213316742,75.0,0,False,STABILIZE,49.38485274068972,55.35625261436083,10.433369122827063,44.081905824287,58.068479850675956,18.66716129886865,False,14.469242637034487,0.0
2026-04-23T12:00:15.750078,73.49999999999982,12.083157064646224,1.0062573338693526,6.334348175018483,75.0,0,False,STABILIZE,51.026197237713305,54.130310025378066,7.46726541042476,46.061148585814266,57.24115499412566,15.793907481949086,False,14.551309861885665,0.0
2026-04-23T12:00:15.805731,73.99999999999982,11.94848208354135,0.906716244643132,6.3529357781895115,75.0,0,False,STABILIZE,52.540002815572414,52.7690698518524,4.48249742337315,47.92526246405939,56.270757060707325,12.88117712163276,False,14.627000140778621,0.0
2026-04-23T12:00:15.860952,74.49999999999982,11.811118744374959,0.8070844845480417,6.371439558140718,75.0,0,False,STABILIZE,53.92248574869712,51.27593448529744,1.486525527202638,49.66958814513856,55.159711539881,9.93625052689972,False,14.696124287434856,0.0
2026-04-23T12:00:15.916313,74.99999999999982,11.671097953318872,0.7073720166770646,6.389859052278568,75.0,0,False,STABILIZE,55.170190549737804,49.65463598651964,1.5131619086184578,51.28976572327641,53.91079546682739,6.966488480548566,False,14.75850952748689,0.0
2026-04-23T12:00:15.972842,75.49999999999982,11.528451214460361,0.6075888121938967,6.408193800116664,75.0,0,False,STABILIZE,56.27999860648394,47.90922675741006,4.5090672277074955,52.78174559829969,52.52713048130623,3.9793138410731053,False,14.813999930324197,0.0
2026-04-23T12:00:16.027747,75.99999999999982,11.383210622713888,0.5077448493358295,6.426443343287268,75.0,0,False,STABILIZE,57.24913597677055,46.04406941204999,7.4937022270039755,54.14179859752891,51.01217502518259,0.9821929893816541,False,14.862456798838528,0.0
2026-04-23T12:00:16.082897,76.4999999999998,11.235408856599859,0.40785011241594804,6.444607225552749,75.0,0,False,STABILIZE,58.0751803218889,44.0638258724476,10.459606873377624,55.366525296767946,49.3697156981232,2.0173828332670296,False,14.903759016094444,0.0
2026-04-23T12:00:16.139260,76.9999999999998,11.08507917089212,0.30791459082469896,6.462684992817,75.0,0,False,STABILIZE,58.75606696117176,41.97344571616092,13.399367949825889,56.45286451709407,47.60385779306934,5.011916249465322,False,14.937803348058589,0.0
2026-04-23T12:00:16.192444,77.4999999999998,10.932255389135765,0.20794827803096202,6.480676193136777,75.0,0,False,STABILIZE,59.29009403261984,39.7781538049318,16.30563758465552,57.39810097621096,45.71901503514268,7.993922485195477,False,14.964504701630993,0.0
2026-04-23T12:00:16.245191,77.9999999999998,10.776971896036954,0.10796117058271389,6.4985803767330115,75.0,0,False,STABILIZE,59.67592674667045,37.48343722525246,19.17115161733531,58.19987207524043,43.719898549631004,10.955948077866887,False,14.983796337333523,0.0
2026-04-23T12:00:16.300798,78.4999999999998,10.619263629726548,0.007963267107372602,6.516397096002044,75.0,0,False,STABILIZE,59.912600722476235,35.09503157350674,21.988747755114513,58.85617380398925,41.61150508662826,13.890589506091093,False,14.995630036123812,0.0
2026-04-23T12:00:16.354248,78.9999999999998,10.459166073899134,-0.0920354326880434,6.534125905526823,75.0,0,False,STABILIZE,59.99952439835512,32.61890661996629,24.751383475024493,59.365365749930895,39.39910453176181,16.790511694629345,False,14.999976219917755,0.0
2026-04-23T12:00:16.409515,79.4999999999998,10.296715249829365,-0.19202492901688653,6.551766362088031,75.0,0,False,STABILIZE,59.93648051038638,30.061251387474098,27.45215362651824,59.726175198382535,37.08822673422292,19.648466348260477,False,14.99682402551932,0.0
2026-04-23T12:00:16.465061,79.9999999999998,10.131947708267335,-0.2919952230128482,6.569318024675177,75.0,0,False,STABILIZE,59.72362663545731,27.42845868211039,30.08430769075083,59.93770031362895,34.68464768502366,22.45731006874432,False,14.986181331772865,0.0
2026-04-23T12:00:16.519563,80.4999999999998,9.964900521214771,-0.3919363177298349,6.586780454497607,75.0,0,False,STABILIZE,59.36149479740309,24.727109114506558,32.641266653361114,59.99941239304221,32.19437508002718,25.210022209597295,False,14.968074739870154,0.0
2026-04-23T12:00:16.575078,80.9999999999998,9.795611273584042,-0.4918382191416656,6.604153214995485,75.0,0,False,STABILIZE,58.85099013722422,21.96395465174585,35.11663944858115,59.9111571885628,29.62363330383696,27.89972242405214,False,14.942549506861212,0.0
2026-04-23T12:00:16.628517,81.4999999999998,9.624118054741682,-0.5916909371414459,6.621435871850706,75.0,0,False,STABILIZE,58.193388650705465,19.145901740962238,37.504238933572005,59.67315529223948,26.978847872077132,30.519687862341417,False,14.909669432535274,0.0
2026-04-23T12:00:16.683934,81.99999999999982,9.45045944993845,-0.691484486540584,6.638627992997747,75.0,0,False,STABILIZE,57.390333999090885,16.27999404681909,39.798097353059,59.28600158486407,24.266629370949477,33.06336997532101,False,14.869516699954545,0.0
2026-04-23T12:00:16.739498,82.49999999999983,9.274674531627802,-0.7912088880673054,6.655729148634474,75.0,0,False,STABILIZE,56.443833400786744,13.373394846015897,41.99248125561178,58.75066374907926,21.49375693421072,35.52441088243252,False,14.822191670039338,0.0
2026-04-23T12:00:16.791768,82.99999999999983,9.096802850674784,-0.8908541693645565,6.672738911232887,75.0,0,False,STABILIZE,55.35625261436083,10.433369122827063,44.081905824287,58.068479850675956,18.66716129886865,37.89665926309349,False,14.76781263071804,0.0
2026-04-23T12:00:16.846720,83.49999999999983,8.916884427457212,-0.9904103659872492,6.689656855549808,75.0,0,False,STABILIZE,54.130310025378066,7.46726541042476,46.061148585814266,57.24115499412566,15.793907481949086,40.17418573179535,False,14.706515501268903,0.0
2026-04-23T12:00:16.900586,83.99999999999984,8.734959742861289,-1.0898675223986825,6.70648255863751,75.0,0,False,STABILIZE,52.76906985185234,4.482497423373044,47.92526246405944,56.27075706070729,12.881177121632657,42.35129765847918,False,14.638453492592618,0.0
2026-04-23T12:00:16.956108,84.49999999999986,8.551069729173554,-1.1892156929660935,6.723215599854292,75.0,0,False,STABILIZE,51.27593448529733,1.486525527202425,49.66958814513868,55.15971153988092,9.93625052689951,44.422553397146274,False,14.563796724264867,0.0
2026-04-23T12:00:17.008902,84.99999999999986,8.365255760871305,-1.28844494295522,6.739855560874995,75.0,0,False,STABILIZE,49.65463598651952,1.513161908618671,51.289765723276524,53.910795466827295,6.966488480548354,46.38277588713907,False,14.482731799325975,0.0
2026-04-23T12:00:17.062027,85.49999999999986,8.177559645313524,-1.387545349523749,6.756402025701459,75.0,0,False,STABILIZE,47.909226757409925,4.509067227707708,52.7817455982998,52.52713048130612,3.979313841072892,48.227065593096754,False,14.395461337870497,0.0
2026-04-23T12:00:17.113175,85.99999999999987,7.988023613334367,-1.4865070027136125,6.772854580672927,75.0,0,False,STABILIZE,46.04406941204979,7.4937022270042934,54.14179859752905,51.01217502518242,0.9821929893813344,49.95081275124191,False,14.302203470602489,0.0
2026-04-23T12:00:17.165239,86.49999999999989,7.796690309741433,-1.5853200064419557,6.789212814476381,75.0,0,False,STABILIZE,44.06382587244731,10.459606873378043,55.36652529676811,49.36971569812295,2.017382833267456,51.549708891389365,False,14.203191293622366,0.0
2026-04-23T12:00:17.221475,86.99999999999989,7.603602783720848,-1.6839744794907483,6.805476318156828,75.0,0,False,STABILIZE,41.97344571616061,13.399367949826306,56.45286451709422,47.603857793069075,5.011916249465747,53.019757605877764,False,14.09867228580803,0.0
2026-04-23T12:00:17.276732,87.49999999999989,7.408804479151378,-1.7824605564949012,6.821644685127522,75.0,0,False,STABILIZE,39.77815380493148,16.30563758465593,57.39810097621108,45.71901503514241,7.993922485195898,54.357284538507436,False,13.988907690246574,0.0
2026-04-23T12:00:17.329380,87.9999999999999,7.212339224829765,-1.8807683889287816,6.8377175111801325,75.0,0,False,STABILIZE,37.48343722525205,19.171151617335813,58.199872075240556,43.719898549630635,10.955948077867411,55.55894656851739,False,13.874171861262603,0.0
2026-04-23T12:00:17.384493,88.49999999999991,7.014251224609391,-1.978888146091073,6.853694394494843,75.0,0,False,STABILIZE,35.09503157350622,21.98874775511511,58.856173803989364,41.6115050866278,13.890589506091716,56.62174016664608,False,13.754751578675311,0.0
2026-04-23T12:00:17.439958,88.99999999999991,6.814585047454632,-2.0768100160878227,6.869574935650405,75.0,0,False,STABILIZE,32.618906619965756,24.751383475025076,59.36536574993099,39.39910453176132,16.79051169462996,57.54300890239038,False,13.630945330998287,0.0
2026-04-23T12:00:17.491398,89.49999999999991,6.613385617413011,-2.1745242068136315,6.885358737634117,75.0,0,False,STABILIZE,30.061251387473543,27.452153626518808,59.72617519838259,37.08822673422242,19.648466348261078,58.32045008369843,False,13.503062569373677,0.0
2026-04-23T12:00:17.543659,89.99999999999993,6.410698203507477,-2.272020946930858,6.9010454058517485,75.0,0,False,STABILIZE,27.428458682109728,30.084307690751476,59.93770031362899,34.68464768502306,22.45731006874501,58.95212051250049,False,13.371422934105487,0.0
2026-04-23T12:00:17.596078,90.49999999999994,6.20656840955109,-2.369290486846734,6.916634548137415,75.0,0,False,STABILIZE,24.727109114505783,32.64126665336183,59.999412393042206,32.194375080026454,25.21002220959807,59.43644134169216,False,13.236355455725288,0.0
2026-04-23T12:00:17.649391,90.99999999999994,6.001042163886318,-2.4663230996883296,6.932125774763368,75.0,0,False,STABILIZE,21.96395465174506,35.11663944858184,59.91115718856275,29.62363330383622,27.899722424052896,59.77220202142986,False,13.098197732587252,0.0
2026-04-23T12:00:17.704815,91.49999999999994,5.794165709051377,-2.5631090822752185,6.94751869844975,75.0,0,False,STABILIZE,19.14590174096143,37.50423893357267,59.673155292239386,26.978847872076376,30.51968786234215,59.95856332487505,False,12.957295087048072,0.0
2026-04-23T12:00:17.760375,91.99999999999996,5.585985591375855,-2.659638756089795,6.962812934374272,75.0,0,False,STABILIZE,16.27999404681827,39.79809735305964,59.28600158486393,24.2666293709487,33.06336997532172,59.99505944582418,False,12.813999702340913,0.0
2026-04-23T12:00:17.814298,92.49999999999997,5.376548650507965,-2.7559024682451234,6.978008100181829,75.0,0,False,STABILIZE,13.373394846015067,41.99248125561239,58.75066374907908,21.493756934209923,35.52441088243321,59.881599162981715,False,12.668669742300754,0.0
2026-04-23T12:00:17.869643,92.99999999999997,5.165902008875863,-2.851890592450202,6.99310381599407,75.0,0,False,STABILIZE,10.433369122826223,44.08190582428758,58.06847985067574,18.667161298867843,37.89665926309415,59.61846606796578,False,12.521668456141311,0.0
2026-04-23T12:00:17.923631,93.49999999999997,4.954093061085248,-2.9475935299726057,7.008099704418885,75.0,0,False,STABILIZE,7.467265410423914,46.061148585814806,57.2411549941254,15.793907481948263,40.17418573179598,59.206317856476836,False,12.373363270521196,0.0
2026-04-23T12:00:17.977746,93.99999999999999,4.7411694632558135,-3.043001710598332,7.022995390559845,75.0,0,False,STABILIZE,4.482497423372193,47.92526246405996,56.270757060707,12.881177121631826,42.35129765847979,58.64618468440098,False,12.224124871168609,0.0
2026-04-23T12:00:18.029666,94.5,4.527179122298804,-3.1381055935888225,7.037790502025571,75.0,0,False,STABILIZE,1.4865255272015725,49.669588145139166,55.15971153988058,9.93625052689867,44.42255339714684,57.93946659295668,False,12.074326276360079,0.0
2026-04-23T12:00:18.083223,95.0,4.312170185138166,-3.2328956686350354,7.052484668939048,75.0,0,False,STABILIZE,1.5131619086195232,51.289765723276965,53.91079546682692,6.966488480547507,46.382775887139616,57.08793000932088,False,11.924341904569024,0.0
2026-04-23T12:00:18.138321,95.5,4.096191027877709,-3.3273624568084537,7.067077523946868,75.0,0,False,STABILIZE,4.509067227708558,52.78174559830021,52.52713048130571,3.9793138410720412,48.22706559309725,56.09370333148098,False,11.774546638614572,0.0
2026-04-23T12:00:18.193813,96.00000000000001,3.879290244916656,-3.4214965115089857,7.0815687022284175,75.0,0,False,STABILIZE,7.493702227005139,54.141798597529416,51.012175025181975,0.9821929893804819,49.95081275124238,54.95927160834835,False,11.625314888649743,0.0
2026-04-23T12:00:18.247525,96.50000000000003,3.661516638016129,-3.515288419409605,7.095957841504992,75.0,0,False,STABILIZE,10.459606873378885,55.366525296768444,49.36971569812247,2.017382833268308,51.5497088913898,53.6874703284302,False,11.477019656331056,0.0
2026-04-23T12:00:18.303061,97.00000000000003,3.442919205318957,-3.6087288013976777,7.11024458204886,75.0,0,False,STABILIZE,13.399367949827138,56.452864517094504,47.603857793068556,5.011916249466597,53.01975760587816,52.28147833258502,False,11.330031602508644,0.0
2026-04-23T12:00:18.355200,97.50000000000003,3.2235471303252874,-3.701808313512877,7.124428566692251,75.0,0,False,STABILIZE,16.30563758465675,57.39810097621133,45.71901503514186,7.9939224851967445,54.3572845385078,50.74480986857594,False,11.184718120767162,0.0
2026-04-23T12:00:18.410642,98.00000000000004,3.0034497708265384,-3.7945176478815528,7.138509440836289,75.0,0,False,STABILIZE,19.17115161733662,58.19987207524076,43.71989854963006,10.95594807786825,55.55894656851771,49.08130580728153,False,11.041442419133169,0.0
2026-04-23T12:00:18.465225,98.50000000000006,2.782676647800062,-3.8868475336475306,7.1524868524598535,75.0,0,False,STABILIZE,21.988747755115902,58.856173803989535,41.61150508662719,13.890589506092544,56.62174016664636,47.29512404251884,False,10.900562612244205,0.0
2026-04-23T12:00:18.520550,99.00000000000006,2.5612774342671605,-3.978788737899172,7.166360452128382,75.0,0,False,STABILIZE,24.751383475025854,59.365365749931115,39.39910453176068,16.790511694630776,57.54300890239063,45.39072909847431,False,10.762430826248707,0.0
2026-04-23T12:00:18.576042,99.50000000000006,2.339301944116856,-4.070332066592667,7.180129893002604,75.0,0,False,STABILIZE,27.452153626519568,59.72617519838267,37.08822673422175,19.648466348261884,58.32045008369864,43.37288097071834,False,10.627392318674023,0.0
2026-04-23T12:00:18.631486,100.00000000000007,2.116800120897975,-4.1614683654714355,7.193794830847216,75.0,0,False,STABILIZE,30.084307690752215,59.93770031362903,34.684647685022355,22.4573100687458,58.952120512500656,41.24662322869532,False,10.495784615462389,0.0
2026-04-23T12:00:18.684091,100.50000000000009,1.8938220265820829,-4.252188520981538,7.2073549240394845,75.0,0,False,STABILIZE,32.64126665336255,59.999412393042206,32.194375080025736,25.21002220959884,59.43644134169227,39.017270409426686,False,10.367936667331872,0.0
2026-04-23T12:00:18.738039,101.00000000000009,1.6704178302997106,-4.34248346118302,7.220809833577785,75.0,0,False,STABILIZE,35.116639448582525,59.911157188562704,29.62363330383548,27.89972242405365,59.77220202142994,36.69039473393611,False,10.244168027570874,0.0
2026-04-23T12:00:18.790888,101.50000000000009,1.4466377970525437,-4.432344156657109,7.234159223090078,75.0,0,False,STABILIZE,37.50423893357334,59.6731552922393,26.97884787207561,30.51968786234288,59.95856332487508,34.271812179598875,False,10.124788053321334,0.0
2026-04-23T12:00:18.845401,102.0000000000001,1.222532276403997,-4.521761621409139,7.247402758842324,75.0,0,False,STABILIZE,39.79809735306028,59.286001584863804,24.26662937094792,33.06336997532243,59.995059445824175,31.767567943227405,False,10.010095132346986,0.0
2026-04-23T12:00:18.900781,102.50000000000011,0.9981516911507725,-4.610726913767147,7.260540109746818,75.0,0,False,STABILIZE,41.992481255613,58.75066374907891,21.493756934209127,35.5244108824339,59.881599162981665,29.183921331227424,False,9.90037593721935,0.0
2026-04-23T12:00:18.955179,103.00000000000011,0.7735465259779662,-4.699231137276042,7.2735709473704695,75.0,0,False,STABILIZE,44.08190582428816,58.06847985067553,18.667161298867033,37.89665926309481,59.618466067965684,26.52733011459179,False,9.795904708785592,0.0
2026-04-23T12:00:19.008112,103.50000000000011,0.5487673161001901,-4.787265441587222,7.286494945943019,75.0,0,False,STABILIZE,46.06114858581535,57.24115499412515,15.79390748194744,40.17418573179661,59.2063178564767,23.80443438783614,False,9.696942570709233,0.0
2026-04-23T12:00:19.063361,104.00000000000013,0.3238646358913861,-4.8748210233436176,7.2993117823651765,75.0,0,False,STABILIZE,47.92526246406047,56.27075706070669,12.881177121630992,42.3512976584804,58.646184684400794,21.022039972220668,False,9.603736876796976,0.0
2026-04-23T12:00:19.115141,104.50000000000014,0.09888908750580025,-4.961889127060016,7.312021136216695,75.0,0,False,STABILIZE,49.669588145139635,55.15971153988025,9.936250526897828,44.42255339714742,57.93946659295645,18.187101404741426,False,9.516520592743017,0.0
2026-04-23T12:00:19.169423,105.00000000000014,-0.12610871050729586,-5.048461045998598,7.324622689764394,75.0,0,False,STABILIZE,51.28976572327741,53.91079546682654,6.96648848054666,46.382775887140156,57.087930009320615,15.30670455540964,False,9.43551171383613,0.0
2026-04-23T12:00:19.225059,105.50000000000014,-0.35107813459253834,-5.1345281230396225,7.337116127970088,75.0,0,False,STABILIZE,52.78174559830061,52.5271304813053,3.979313841071191,48.22706559309776,56.09370333148068,12.388048916266962,False,9.360912720084968,0.0
2026-04-23T12:00:19.277771,106.00000000000016,-0.5759685675785973,-5.2200817515471,7.349501138498474,75.0,0,False,STABILIZE,54.141798597529785,51.01217502518153,0.9821929893796293,49.95081275124286,54.95927160834802,9.438429606404773,False,9.292910070123511,0.0
2026-04-23T12:00:19.333335,106.50000000000017,-0.8007294100668001,-5.305113376229478,7.361777411724935,75.0,0,False,STABILIZE,55.36652529676877,49.369715698121986,2.0173828332691603,51.54970889139024,53.687470328429825,6.46521913796569,False,9.23167373516156,0.0
2026-04-23T12:00:19.387496,107.00000000000017,-1.0253100918157898,-5.389614493995145,7.373944640743279,75.0,0,False,STABILIZE,56.452864517094795,47.603857793068045,5.011916249467447,53.01975760587856,52.2814783325846,3.475848988702731,False,9.17735677414526,0.0
2026-04-23T12:00:19.442889,107.50000000000017,-1.249660083119622,-5.47357665480274,7.386002521373412,75.0,0,False,STABILIZE,57.39810097621159,45.719015035141304,7.993922485197588,54.35728453850816,50.74480986857549,0.4777910271551748,False,9.13009495118942,0.0
2026-04-23T12:00:19.495119,108.00000000000018,-1.4737289061767098,-5.556991462506157,7.397950752168949,75.0,0,False,STABILIZE,58.199872075240975,43.71989854962947,10.955948077869088,55.55894656851804,49.08130580728103,2.5214611631315127,False,9.090006396237952,0.0
2026-04-23T12:00:19.549258,108.5000000000002,-1.697466146447155,-5.639850575694134,7.409789034424741,75.0,0,False,STABILIZE,58.8561738039897,41.61150508662658,13.890589506093374,56.62174016664664,47.29512404251832,5.5144110136619595,False,9.057191309800515,0.0
2026-04-23T12:00:19.599690,109.0000000000002,-1.920821463995781,-5.722145708524401,7.42151707218435,75.0,0,False,STABILIZE,59.36536574993123,39.39910453176003,16.790511694631597,57.543008902390866,45.390729098473756,8.49357770850799,False,9.031731712503438,0.0
2026-04-23T12:00:19.653040,109.5000000000002,-2.1437446048184126,-5.8038686315522545,7.4331345722474405,75.0,0,False,STABILIZE,59.726175198382755,37.088226734221074,19.64846634826269,58.32045008369884,43.37288097071775,11.451514882452512,False,9.013691240080862,0.0
2026-04-23T12:00:19.707055,110.00000000000021,-2.366185412148822,-5.885011172553492,7.4446412441771175,75.0,0,False,STABILIZE,59.937700313629065,34.684647685021666,22.45731006874659,58.952120512500805,41.2466232286947,14.380829233024567,False,9.003114984318547,0.0
2026-04-23T12:00:19.758418,110.50000000000023,-2.5880938377437603,-5.965565217341635,7.4560368003071815,75.0,0,False,STABILIZE,59.9994123930422,32.19437508002502,25.210022209599618,59.436441341692394,39.01727040942604,17.274198999905146,False,9.00002938034789,0.0
2026-04-23T12:00:19.813932,111.00000000000023,-2.809419953143646,-6.045522710579332,7.467320955749322,75.0,0,False,STABILIZE,59.911157188562655,29.623633303834737,27.899722424054406,59.77220202143002,36.690394733935435,20.124392265514885,False,9.004442140571868,0.0
2026-04-23T12:00:19.869529,111.50000000000023,-3.0301139609062253,-6.124875656583891,7.478493428400244,75.0,0,False,STABILIZE,59.67315529223921,26.978847872074848,30.519687862343613,59.958563324875115,34.27181217959818,22.92428503104173,False,9.01634223538804,0.0
2026-04-23T12:00:19.925034,112.00000000000024,-3.2501262058107985,-6.203616120126837,7.489553938948708,75.0,0,False,STABILIZE,59.28600158486367,24.26662937094714,33.06336997532315,59.99505944582416,31.76756794322668,25.66687902272782,False,9.035699920756816,0.0
2026-04-23T12:00:19.979044,112.50000000000026,-3.4694071860304376,-6.281736227227429,7.50050221088253,75.0,0,False,STABILIZE,58.75066374907874,21.49375693420833,35.52441088243458,59.88159916298161,29.183921331226678,28.345319183909286,False,9.062466812546063,0.0
2026-04-23T12:00:20.031610,113.00000000000026,-3.6879075642696653,-6.359228165940065,7.511337970495481,75.0,0,False,STABILIZE,58.06847985067531,18.667161298866223,37.89665926309548,59.618466067965585,26.527330114591024,30.95291080908784,False,9.096576007466235,0.0
2026-04-23T12:00:20.087004,113.50000000000026,-3.9055781788651753,-6.436084187135447,7.522060946894135,75.0,0,False,STABILIZE,57.24115499412489,15.793907481946617,40.174185731797245,59.20631785647656,23.804434387835354,33.483136277208004,False,9.137942250293754,0.0
2026-04-23T12:00:20.140084,114.00000000000027,-4.122370054846975,-6.512296605275499,7.5326708720046405,75.0,0,False,STABILIZE,56.2707570607064,12.88117712163016,42.351297658480995,58.646184684400616,21.022039972219872,35.929671342315416,False,9.18646214696468,0.0
